[
  {
    "codigo": "1672",
    "nombre": "SAN BERNARDO",
    "localidad": "VILLA CRESPO",
    "direccion": "AV. CORRIENTES 5436",
    "segmentacion": "ENTRETENIMIENTO",
    "horario": "MAÑANA / MEDIO DIA / TARDE / NOCHE",
    "descripcion": "Bar notable de Buenos Aires perfecto para ir a jugar al pool, ping pong o metegol",
    "lb": "QUILMES",
    "eventos_promociones": null,
    "direccionFormateada": "Av. Corrientes 5436, C1414AJU Cdad. Autónoma de Buenos Aires, Argentina",
    "latitud": "-34.5979495",
    "longitud": "-58.4412232"
  },
  {
    "codigo": "465217",
    "nombre": "CASA GIN",
    "localidad": "PALERMO",
    "direccion": "HONDURAS 5799",
    "segmentacion": "BAR",
    "horario": "TARDE / NOCHE",
    "descripcion": "Especialidad en gin tonic con más de 50 etiquetas",
    "lb": "",
    "eventos_promociones": null,
    "direccionFormateada": "Honduras 5799, C1414 Cdad. Autónoma de Buenos Aires, Argentina",
    "latitud": "-34.5825152",
    "longitud": "-58.43810620000001"
  },
  {
    "codigo": "425731",
    "nombre": "EL PREFERIDO",
    "localidad": "PALERMO",
    "direccion": "GUATEMALA 4801",
    "segmentacion": "RESTAURANTE",
    "horario": "MEDIO DIA / NOCHE",
    "descripcion": "Bistró porteño con espíritu de bodegón; famoso por sus milanesas y el vermú tirado.",
    "lb": "",
    "eventos_promociones": null,
    "direccionFormateada": "Jorge Luis Borges 2108, C1425 FFD, Cdad. Autónoma de Buenos Aires, Argentina",
    "latitud": "-34.5854137",
    "longitud": "-58.4253412"
  },
  {
    "codigo": "79508",
    "nombre": "MANDARINE",
    "localidad": "COSTANERA",
    "direccion": "AV COSTANERA NORTE Y AV SARMIENTO 2221",
    "segmentacion": "BOLICHE",
    "horario": "NOCHE",
    "descripcion": "La casa de la electrónica en Buenos Aires; festivales masivos y DJs internacionales",
    "lb": "BUDWEISER",
    "eventos_promociones": null,
    "direccionFormateada": "Sarmiento 2221, C1044AAI Cdad. Autónoma de Buenos Aires, Argentina",
    "latitud": "-34.6059201",
    "longitud": "-58.39831909999999"
  },
  {
    "codigo": "56388",
    "nombre": "Tequila",
    "localidad": "COSTANERA",
    "direccion": "RAFAEL OBLIGADO Y PAMPA COSTANERA(9 A 11)",
    "segmentacion": "BOLICHE",
    "horario": "NOCHE",
    "descripcion": "Boliche",
    "lb": "STELLA ARTOIS",
    "eventos_promociones": null,
    "direccionFormateada": "Av. Costanera Rafael Obligado 11, C1428DYC Cdad. Autónoma de Buenos Aires, Argentina",
    "latitud": "-34.5508565",
    "longitud": "-58.4294439"
  },
  {
    "codigo": "56383",
    "nombre": "Gardiner",
    "localidad": "COSTANERA",
    "direccion": "AV. COSTANERA RAFAEL OBLIGADO 6211",
    "segmentacion": "RESTAURANTE",
    "horario": "MEDIO DIA / NOCHE",
    "descripcion": "Cocina internacional de nivel y ambiente elegante",
    "lb": "STELLA ARTOIS",
    "eventos_promociones": null,
    "direccionFormateada": "Av. Costanera Rafael Obligado 6211, C1428 Cdad. Autónoma de Buenos Aires, Argentina",
    "latitud": "-34.5499251",
    "longitud": "-58.4299609"
  },
  {
    "codigo": "64050",
    "nombre": "Milion",
    "localidad": "RECOLETA",
    "direccion": "PARANA 1048",
    "segmentacion": "RESTAURANTE",
    "horario": "MAÑANA / MEDIO DIA / TARDE / NOCHE",
    "descripcion": "Restaurante y bar icónico en una casona francesa de principios del siglo XX, con terraza y jardín interno.",
    "lb": "GOOSE ISLAND",
    "eventos_promociones": null,
    "direccionFormateada": "Paraná 1048, C1018ADB Cdad. Autónoma de Buenos Aires, Argentina",
    "latitud": "-34.5965566",
    "longitud": "-58.38856860000001"
  },
  {
    "codigo": "79937",
    "nombre": "DANZON",
    "localidad": "RECOLETA",
    "direccion": "LIBERTAD (1°PISO-) 1161",
    "segmentacion": "RESTAURANTE",
    "horario": "NOCHE",
    "descripcion": "Restaurant de cocina mediterránea",
    "lb": "",
    "eventos_promociones": null,
    "direccionFormateada": "Rodríguez Peña, Marcelo Torcuato de Alvear &, C1021 Cdad. Autónoma de Buenos Aires, Argentina",
    "latitud": "-34.59723",
    "longitud": "-58.3918703"
  },
  {
    "codigo": "72608",
    "nombre": "Cabaña Las Lilas",
    "localidad": "PUERTO MADERO",
    "direccion": "AV ALICIA MOREAU DE JUSTO 550",
    "segmentacion": "RESTAURANTE",
    "horario": "MEDIO DIA / NOCHE",
    "descripcion": "Recomendado por la guia michelin",
    "lb": "QUILMES",
    "eventos_promociones": null,
    "direccionFormateada": "AR-BUE-ALI2, Av. Alicia Moreau de Justo 550, C1107 Cdad. Autónoma de Buenos Aires, Argentina",
    "latitud": "-34.6038142",
    "longitud": "-58.36680679999999"
  },
  {
    "codigo": "740251",
    "nombre": "HAPPENING",
    "localidad": "COSTANERA",
    "direccion": "R  OBLIG S/N HAPPENING 1",
    "segmentacion": "RESTAURANTE",
    "horario": "MEDIO DIA / NOCHE",
    "descripcion": "Clásico porteño de la Costanera con parrilla gourmet y platos de autor.",
    "lb": "STELLA ARTOIS",
    "eventos_promociones": null,
    "direccionFormateada": "Aviador Enrique A. Roger, Cdad. Autónoma de Buenos Aires, Argentina",
    "latitud": "-34.6517959",
    "longitud": "-58.3881023"
  },
  {
    "codigo": "17473800024321",
    "nombre": "PIMENTON",
    "localidad": "PILAR",
    "direccion": "COLECTORA PANAMERICA KM 46 46",
    "segmentacion": "RESTAURANTE",
    "horario": "MEDIO DIA / NOCHE",
    "descripcion": "",
    "lb": "GOOSE",
    "eventos_promociones": null,
    "direccionFormateada": "R. Caamaño 1060, B1631 Pilar, Provincia de Buenos Aires, Argentina",
    "latitud": "-34.4348091",
    "longitud": "-58.830443"
  },
  {
    "codigo": "17473800019002",
    "nombre": "Brasov",
    "localidad": "PILAR",
    "direccion": "PANAMERICANA KM 49.5 1",
    "segmentacion": "ENTRETENIMIENTO",
    "horario": "TARDE / NOCHE",
    "descripcion": "",
    "lb": "STELLA ARTOIS",
    "eventos_promociones": null,
    "direccionFormateada": "Au Panamericana, Provincia de Buenos Aires, Argentina",
    "latitud": "-34.485358",
    "longitud": "-58.6153511"
  },
  {
    "codigo": "17473800018357",
    "nombre": "Mahi Mahi",
    "localidad": "CAMPANA",
    "direccion": "H. YRIGOYEN 100",
    "segmentacion": "RESTAURANTE",
    "horario": "MEDIO DIA / NOCHE",
    "descripcion": "Seafood, Bar & Grill",
    "lb": "STELLA ARTOIS",
    "eventos_promociones": null,
    "direccionFormateada": "Av. Hipólito Yrigoyen 100, Campana, Provincia de Buenos Aires, Argentina",
    "latitud": "-34.1578479",
    "longitud": "-58.95372270000001"
  },
  {
    "codigo": "17473800024258",
    "nombre": "Native",
    "localidad": "CAMPANA",
    "direccion": "RUTA 9",
    "segmentacion": "DEPORTE",
    "horario": "MEDIO DIA / TARDE / NOCHE",
    "descripcion": "Beach Club - WakePark",
    "lb": "CORONA",
    "eventos_promociones": null,
    "direccionFormateada": "RN9, Campana, Provincia de Buenos Aires, Argentina",
    "latitud": "-34.2096251",
    "longitud": "-58.930316"
  },
  {
    "codigo": "17473800021826",
    "nombre": "Trufa",
    "localidad": "PILAR",
    "direccion": "RUA CAAMAÑO 1370",
    "segmentacion": "RESTAURANTE",
    "horario": "MAÑANA / MEDIO DIA / TARDE / NOCHE",
    "descripcion": "",
    "lb": "CORONA",
    "eventos_promociones": null,
    "direccionFormateada": "R. Caamaño 1370, B1631BVB La Lonja, Provincia de Buenos Aires, Argentina",
    "latitud": "-34.4354731",
    "longitud": "-58.8294468"
  },
  {
    "codigo": "17473800021196",
    "nombre": "ASADITO",
    "localidad": "",
    "direccion": "LAS MAGNOLIAS 532",
    "segmentacion": "",
    "horario": "",
    "descripcion": "",
    "lb": "STELLA ARTOIS",
    "eventos_promociones": null,
    "direccionFormateada": "Las Magnolias 532, B1629 Pilar Centro, Provincia de Buenos Aires, Argentina",
    "latitud": "-34.4452614",
    "longitud": "-58.8714723"
  },
  {
    "codigo": "17473800030501",
    "nombre": "Banchero",
    "localidad": "PILAR",
    "direccion": "PANAMERICANA KM 50 1",
    "segmentacion": "RESTAURANTE",
    "horario": "MEDIO DIA / TARDE / NOCHE",
    "descripcion": "",
    "lb": "QUILMES",
    "eventos_promociones": null,
    "direccionFormateada": "Av. Pres. Juan Domingo Peron 1399, Pres. Derqui, Provincia de Buenos Aires, Argentina",
    "latitud": "-34.4570929",
    "longitud": "-58.8659776"
  },
  {
    "codigo": "40349200061621",
    "nombre": "Peru Beach",
    "localidad": "SAN ISIDRO",
    "direccion": "ELCANO 794 P/D: 2",
    "segmentacion": "RESTAURANTE",
    "horario": "MAÑANA / MEDIO DIA / TARDE / NOCHE",
    "descripcion": "",
    "lb": "CORONA",
    "eventos_promociones": null,
    "direccionFormateada": "Juan Bautista de LaSalle, San Isidro, Provincia de Buenos Aires, Argentina",
    "latitud": "-34.4658189",
    "longitud": "-58.5088743"
  },
  {
    "codigo": "40349200060113",
    "nombre": "Ruka",
    "localidad": "BECCAR",
    "direccion": "BLANCO ENCALADA 2405",
    "segmentacion": "BAR",
    "horario": "MEDIO DIA / TARDE / NOCHE",
    "descripcion": "",
    "lb": "GOOSE ISLAND",
    "eventos_promociones": null,
    "direccionFormateada": "Blanco Encalada 2405, B1642 Buenos Aires, Provincia de Buenos Aires, Argentina",
    "latitud": "-34.4776363",
    "longitud": "-58.5716248"
  },
  {
    "codigo": "40349200061389",
    "nombre": "MARGA",
    "localidad": "SAN ISIDRO",
    "direccion": "TISCORNIA 1081",
    "segmentacion": "RESTAURANTE",
    "horario": "MAÑANA / MEDIO DIA / TARDE / NOCHE",
    "descripcion": "",
    "lb": "ANDES ORIGEN",
    "eventos_promociones": null,
    "direccionFormateada": "Tiscornia 1081, B1642 San Isidro, Provincia de Buenos Aires, Argentina",
    "latitud": "-34.4619818",
    "longitud": "-58.50689589999999"
  },
  {
    "codigo": "40349200061375",
    "nombre": "parrila la Vaca",
    "localidad": "SAN ISIDRO",
    "direccion": "ROQUE SAENZ PEÑA 1017",
    "segmentacion": "RESTAURANTE",
    "horario": "MEDIO DIA / NOCHE",
    "descripcion": "",
    "lb": "QUILMES",
    "eventos_promociones": null,
    "direccionFormateada": "Roque Sáenz Peña 1017, B1642 San Isidro, Provincia de Buenos Aires, Argentina",
    "latitud": "-34.468783",
    "longitud": "-58.5017502"
  },
  {
    "codigo": "40349200061365",
    "nombre": "Fuegos",
    "localidad": "SAN ISIDRO",
    "direccion": "PRIMERA JUNTA 999",
    "segmentacion": "RESTAURANTE",
    "horario": "MEDIO DIA / NOCHE",
    "descripcion": "",
    "lb": "GOOSE ISLAND",
    "eventos_promociones": null,
    "direccionFormateada": "Primera Junta 999, B1642 San Isidro, Provincia de Buenos Aires, Argentina",
    "latitud": "-34.4627634",
    "longitud": "-58.50869319999999"
  },
  {
    "codigo": "40349200060564",
    "nombre": "Ike Milano",
    "localidad": "SAN ISIDRO",
    "direccion": "DARDO ROCHA 2602",
    "segmentacion": "RESTAURANTE",
    "horario": "MEDIO DIA / NOCHE",
    "descripcion": "",
    "lb": "STELLA ARTOIS",
    "eventos_promociones": null,
    "direccionFormateada": "FTL, Dardo Rocha 2602, B1640 Martínez, Provincia de Buenos Aires, Argentina",
    "latitud": "-34.4947595",
    "longitud": "-58.53388489999999"
  },
  {
    "codigo": "40349200060568",
    "nombre": "Deriva",
    "localidad": "SAN ISIDRO",
    "direccion": "DARDO ROCHA 2290",
    "segmentacion": "RESTAURANTE",
    "horario": "MAÑANA / MEDIO DIA / TARDE / NOCHE",
    "descripcion": "",
    "lb": "STELLA ARTOIS",
    "eventos_promociones": null,
    "direccionFormateada": "Dardo Rocha 2290, B1640 Martínez, Provincia de Buenos Aires, Argentina",
    "latitud": "-34.4930941",
    "longitud": "-58.5304921"
  },
  {
    "codigo": "40349200061479",
    "nombre": "Corcubion",
    "localidad": "VICENTE LOPEZ",
    "direccion": "JUAN CARLOS CRUZ 1871",
    "segmentacion": "RESTAURANTE",
    "horario": "MEDIO DIA / TARDE / NOCHE",
    "descripcion": "",
    "lb": "STELLA ARTOIS",
    "eventos_promociones": null,
    "direccionFormateada": "Juan Carlos Cruz 1871, B1636DVE Vicente López, Provincia de Buenos Aires, Argentina",
    "latitud": "-34.5149269",
    "longitud": "-58.4745969"
  },
  {
    "codigo": "40349200063529",
    "nombre": "Vermudez",
    "localidad": "",
    "direccion": "ITALIA 460",
    "segmentacion": "",
    "horario": "",
    "descripcion": "",
    "lb": "ARTESANAL",
    "eventos_promociones": null,
    "direccionFormateada": "Italia 460, C1406ERB Cdad. Autónoma de Buenos Aires, Argentina",
    "latitud": "-34.6350946",
    "longitud": "-58.4635528"
  },
  {
    "codigo": "18165200014321",
    "nombre": "7 Budas",
    "localidad": "",
    "direccion": "MENDOZA 1668",
    "segmentacion": "",
    "horario": "",
    "descripcion": "",
    "lb": "STELLA ARTOIS",
    "eventos_promociones": null,
    "direccionFormateada": "Mendoza 1668, C1428DJP Cdad. Autónoma de Buenos Aires, Argentina",
    "latitud": "-34.5569408",
    "longitud": "-58.4502991"
  },
  {
    "codigo": "18165200013089",
    "nombre": "Chiringuito",
    "localidad": "",
    "direccion": "MENDOZA 1541",
    "segmentacion": "",
    "horario": "",
    "descripcion": "",
    "lb": "ANDES ORIGEN",
    "eventos_promociones": null,
    "direccionFormateada": "Mendoza 1541, C1428DJM Cdad. Autónoma de Buenos Aires, Argentina",
    "latitud": "-34.5559671",
    "longitud": "-58.44913260000001"
  },
  {
    "codigo": "18165200011231",
    "nombre": "HOMERO",
    "localidad": "PILAR",
    "direccion": "Castelli 416",
    "segmentacion": "RESTAURANTE",
    "horario": "MEDIO DIA",
    "descripcion": "",
    "lb": "STELLA ARTOIS",
    "eventos_promociones": null,
    "direccionFormateada": "Juan Jose Castelli 416, B1629CUD Pilar Centro, Provincia de Buenos Aires, Argentina",
    "latitud": "-34.4494022",
    "longitud": "-58.8986042"
  },
  {
    "codigo": "18165200013454",
    "nombre": "FLANDERS",
    "localidad": "",
    "direccion": "GOLFERS 2931",
    "segmentacion": "",
    "horario": "",
    "descripcion": "",
    "lb": "STELLA ARTOIS",
    "eventos_promociones": null,
    "direccionFormateada": "Buenos Aires, Argentina",
    "latitud": "-34.6036739",
    "longitud": "-58.3821215"
  },
  {
    "codigo": "18165200012544",
    "nombre": "PIZZA CERO",
    "localidad": "",
    "direccion": "COLEC. 12 DE OCTUBRE (OFFICE PARK) 1",
    "segmentacion": "",
    "horario": "",
    "descripcion": "",
    "lb": "STELLA ARTOIS",
    "eventos_promociones": null,
    "direccionFormateada": "12 de Octubre, C1416 Cdad. Autónoma de Buenos Aires, Argentina",
    "latitud": "-34.601481",
    "longitud": "-58.4702913"
  },
  {
    "codigo": "18165200011551",
    "nombre": "PASION",
    "localidad": "",
    "direccion": "PATRICIAS ARGENTINAS 740 1",
    "segmentacion": "",
    "horario": "",
    "descripcion": "",
    "lb": "QUILMES",
    "eventos_promociones": null,
    "direccionFormateada": "Av. Patricias Argentinas 740, C1414 Cdad. Autónoma de Buenos Aires, Argentina",
    "latitud": "-34.6063858",
    "longitud": "-58.43844420000001"
  },
  {
    "codigo": "18165200012521",
    "nombre": "AREIA",
    "localidad": "",
    "direccion": "P. ARGENTINAS Y FRANCIA 1",
    "segmentacion": "",
    "horario": "",
    "descripcion": "",
    "lb": "STELLA ARTOIS",
    "eventos_promociones": null,
    "direccionFormateada": "C. P, B1655 Villa José León Suárez, Provincia de Buenos Aires, Argentina",
    "latitud": "-34.5335043",
    "longitud": "-58.5842962"
  },
  {
    "codigo": "181652000161082",
    "nombre": "Chapaleo",
    "localidad": "TIGRE",
    "direccion": "Av. Victorica 50 PB",
    "segmentacion": "RESTAURANTE",
    "horario": "MEDIO DIA / TARDE / NOCHE",
    "descripcion": "",
    "lb": "CORONA",
    "eventos_promociones": null,
    "direccionFormateada": "Av. Victorica 50, B1648 Tigre, Provincia de Buenos Aires, Argentina",
    "latitud": "-34.4156785",
    "longitud": "-58.5803806"
  },
  {
    "codigo": "181652000160754",
    "nombre": "Savage",
    "localidad": "TIGRE",
    "direccion": "Av. Victorica 480",
    "segmentacion": "RESTAURANTE",
    "horario": "MAÑANA / MEDIO DIA / TARDE / NOCHE",
    "descripcion": "",
    "lb": "ANDES ORIGEN",
    "eventos_promociones": null,
    "direccionFormateada": "Av. Victorica 480, B1648 Tigre, Provincia de Buenos Aires, Argentina",
    "latitud": "-34.4139489",
    "longitud": "-58.5845911"
  },
  {
    "codigo": "18165200012375",
    "nombre": "Tia Ñata",
    "localidad": "",
    "direccion": "GERONIMO LORETO ESQ. ARRIBEÑOS 1",
    "segmentacion": "",
    "horario": "",
    "descripcion": "",
    "lb": "CORONA",
    "eventos_promociones": null,
    "direccionFormateada": "Arribeños, Cdad. Autónoma de Buenos Aires, Argentina",
    "latitud": "-34.5552645",
    "longitud": "-58.4524709"
  },
  {
    "codigo": "13590100042878",
    "nombre": "ROCKY POINT",
    "localidad": "",
    "direccion": "AV DE MAYO 323",
    "segmentacion": "",
    "horario": "",
    "descripcion": "",
    "lb": "BUDWEISER",
    "eventos_promociones": null,
    "direccionFormateada": "Av. de Mayo 323, C1084AAA Cdad. Autónoma de Buenos Aires, Argentina",
    "latitud": "-34.6082814",
    "longitud": "-58.37375609999999"
  },
  {
    "codigo": "13590100044187",
    "nombre": "MALEDETTO TRATORIA",
    "localidad": "",
    "direccion": "ROSALES 225",
    "segmentacion": "",
    "horario": "",
    "descripcion": "",
    "lb": "STELLA ARTOIS",
    "eventos_promociones": null,
    "direccionFormateada": "Av. Rosales 225, C1106ACC Cdad. Autónoma de Buenos Aires, Argentina",
    "latitud": "-34.6047816",
    "longitud": "-58.36754819999999"
  },
  {
    "codigo": "13590100020683",
    "nombre": "420",
    "localidad": "",
    "direccion": "PERON JUAN D. AV. 131 1",
    "segmentacion": "",
    "horario": "",
    "descripcion": "",
    "lb": "PATAGONIA",
    "eventos_promociones": null,
    "direccionFormateada": "Tte. Gral. Juan Domingo Perón, Cdad. Autónoma de Buenos Aires, Argentina",
    "latitud": "-34.6073212",
    "longitud": "-58.399267"
  },
  {
    "codigo": "13590100041870",
    "nombre": "PALOTES",
    "localidad": "",
    "direccion": "NECOCHEA 244",
    "segmentacion": "",
    "horario": "",
    "descripcion": "",
    "lb": "BUDWEISER",
    "eventos_promociones": null,
    "direccionFormateada": "Necochea 244, C1158ABF Cdad. Autónoma de Buenos Aires, Argentina",
    "latitud": "-34.6275939",
    "longitud": "-58.36500599999999"
  },
  {
    "codigo": "13590100041526",
    "nombre": "MERCADO RUFFIANO",
    "localidad": "",
    "direccion": "ALEM 267",
    "segmentacion": "",
    "horario": "",
    "descripcion": "",
    "lb": "STELLA ARTOIS",
    "eventos_promociones": null,
    "direccionFormateada": "Av. Leandro N. Alem 267, C1003AAC Cdad. Autónoma de Buenos Aires, Argentina",
    "latitud": "-34.6045652",
    "longitud": "-58.369734"
  },
  {
    "codigo": "13590100118579",
    "nombre": "ORALE JUANITO",
    "localidad": "RAMOS MEJIA",
    "direccion": "Rosales 231",
    "segmentacion": "RESTAURANTE",
    "horario": "MEDIO DIA / NOCHE",
    "descripcion": "",
    "lb": "CORONA",
    "eventos_promociones": null,
    "direccionFormateada": "Rosales 231, B1704EYE Ramos Mejía, Provincia de Buenos Aires, Argentina",
    "latitud": "-34.6434854",
    "longitud": "-58.5657539"
  },
  {
    "codigo": "11216600118458",
    "nombre": "BRUCE",
    "localidad": "",
    "direccion": "MARTÍN FIERRO 3246",
    "segmentacion": "",
    "horario": "",
    "descripcion": "",
    "lb": "STELLA ARTOIS",
    "eventos_promociones": null,
    "direccionFormateada": "Pje. Martin Fierro 3246, C1408CTB Cdad. Autónoma de Buenos Aires, Argentina",
    "latitud": "-34.6231741",
    "longitud": "-58.5132434"
  },
  {
    "codigo": "11216600118336",
    "nombre": "MALCRIADO",
    "localidad": "",
    "direccion": "MARTIN FIERRO 3280",
    "segmentacion": "",
    "horario": "",
    "descripcion": "",
    "lb": "STELLA ARTOIS",
    "eventos_promociones": null,
    "direccionFormateada": "Pje. Martin Fierro 3280, C1408CTB Cdad. Autónoma de Buenos Aires, Argentina",
    "latitud": "-34.6231741",
    "longitud": "-58.5132434"
  },
  {
    "codigo": "11216600118370",
    "nombre": "ITALICA",
    "localidad": "",
    "direccion": "MARTIM FIERRO 3351",
    "segmentacion": "",
    "horario": "",
    "descripcion": "",
    "lb": "PATAGONIA",
    "eventos_promociones": null,
    "direccionFormateada": "Martín Fierro 3351, B1713 Buenos Aires, Provincia de Buenos Aires, Argentina",
    "latitud": "-34.6247467",
    "longitud": "-58.6944123"
  },
  {
    "codigo": "11216600115479",
    "nombre": "GARDENIAS",
    "localidad": "",
    "direccion": "MARTÍN FIERRO 3022",
    "segmentacion": "",
    "horario": "",
    "descripcion": "",
    "lb": "PATAGONIA",
    "eventos_promociones": null,
    "direccionFormateada": "Pje. Martin Fierro 3022, C1408CTB Cdad. Autónoma de Buenos Aires, Argentina",
    "latitud": "-34.6231741",
    "longitud": "-58.5132434"
  },
  {
    "codigo": "304863",
    "nombre": "Uni Club",
    "localidad": "ABASTO",
    "direccion": "GUARDIA VIEJA 3360",
    "segmentacion": "BOLICHE",
    "horario": "NOCHE",
    "descripcion": "Uniclub anfitriona conciertos para una amplia gama de géneros de artistas",
    "lb": "",
    "eventos_promociones": null,
    "direccionFormateada": "Guardia Vieja 3360, C1192AAB Cdad. Autónoma de Buenos Aires, Argentina",
    "latitud": "-34.6028334",
    "longitud": "-58.4122978"
  },
  {
    "codigo": "435102",
    "nombre": "ROMA",
    "localidad": "ABASTO",
    "direccion": "DOCTOR TOMÁS MANUEL DE ANCHORENA 806",
    "segmentacion": "RESTAURANTE",
    "horario": "MAÑANA / MEDIO DIA / TARDE / NOCHE",
    "descripcion": "Bar notable, Pizza porteñza. Empanadas y Vermú",
    "lb": "",
    "eventos_promociones": null,
    "direccionFormateada": "Dr. Tomás Manuel de Anchorena 806, C1170 Cdad. Autónoma de Buenos Aires, Argentina",
    "latitud": "-34.5993666",
    "longitud": "-58.4088524"
  },
  {
    "codigo": "64179",
    "nombre": "OPEN GALLO",
    "localidad": "ABASTO",
    "direccion": "GALLO 241",
    "segmentacion": "DEPORTE",
    "horario": "MAÑANA / MEDIO DIA / TARDE / NOCHE",
    "descripcion": "Canchas de futbol para alquilar",
    "lb": "QUILMES",
    "eventos_promociones": null,
    "direccionFormateada": "Gallo 241, C1196 Cdad. Autónoma de Buenos Aires, Argentina",
    "latitud": "-34.6056452",
    "longitud": "-58.41340029999999"
  },
  {
    "codigo": "433632",
    "nombre": "MOSCU",
    "localidad": "COSTANERA",
    "direccion": "RAFAEL OBLIGADO 5501",
    "segmentacion": "BOLICHE",
    "horario": "NOCHE",
    "descripcion": "Boliche",
    "lb": "",
    "eventos_promociones": null,
    "direccionFormateada": "Acceso A Rafael Obligado, C1425 Cdad. Autónoma de Buenos Aires, Argentina",
    "latitud": "-34.5697268",
    "longitud": "-58.3979557"
  },
  {
    "codigo": "147692",
    "nombre": "NICETO",
    "localidad": "PALERMO",
    "direccion": "CNEL NICETO VEGA 5510",
    "segmentacion": "ENTRETENIMIENTO",
    "horario": "NOCHE",
    "descripcion": "Música en vivo y fiestas temáticas",
    "lb": "QUILMES",
    "eventos_promociones": null,
    "direccionFormateada": "Cnel. Niceto Vega 5510, C1414 BFD, Cdad. Autónoma de Buenos Aires, Argentina",
    "latitud": "-34.587383",
    "longitud": "-58.4388427"
  },
  {
    "codigo": "142679",
    "nombre": "MAKENA",
    "localidad": "PALERMO",
    "direccion": "FITZ ROY 1519",
    "segmentacion": "ENTRETENIMIENTO",
    "horario": "NOCHE",
    "descripcion": "Bar y club íntimo famoso por sus noches de rock, funk y reggae; ideal para bailar  y descubrir bandas nuevas.",
    "lb": "QUILMES",
    "eventos_promociones": null,
    "direccionFormateada": "Fitz Roy 1519, C1414 Cdad. Autónoma de Buenos Aires, Argentina",
    "latitud": "-34.5856262",
    "longitud": "-58.437802"
  },
  {
    "codigo": "473696",
    "nombre": "ART MEDIA",
    "localidad": "VILLA CRESPO",
    "direccion": "AV. CORRIENTES 6271",
    "segmentacion": "ENTRETENIMIENTO",
    "horario": "NOCHE",
    "descripcion": "Complejo artistico y cultural",
    "lb": "ANDES ORIGEN",
    "eventos_promociones": null,
    "direccionFormateada": "Av. Corrientes 6271, C1427 Cdad. Autónoma de Buenos Aires, Argentina",
    "latitud": "-34.5908128",
    "longitud": "-58.44830870000001"
  },
  {
    "codigo": "324713",
    "nombre": "Piegari",
    "localidad": "RECOLETA",
    "direccion": "POSADAS 1042",
    "segmentacion": "RESTAURANTE",
    "horario": "MEDIO DIA / NOCHE",
    "descripcion": "Autentica cocina italiana",
    "lb": "QUILMES",
    "eventos_promociones": null,
    "direccionFormateada": "Posadas 1042, C1011 Cdad. Autónoma de Buenos Aires, Argentina",
    "latitud": "-34.5901413",
    "longitud": "-58.3818636"
  },
  {
    "codigo": "406217",
    "nombre": "LUCILE",
    "localidad": "PALERMO",
    "direccion": "JOSE IGNACIO GORRITI 5520",
    "segmentacion": "ENTRETENIMIENTO",
    "horario": "NOCHE",
    "descripcion": "Bandas, shows en vivo, tapas y tragos de autor",
    "lb": "",
    "eventos_promociones": null,
    "direccionFormateada": "Gorriti 5520, C1414BKD Cdad. Autónoma de Buenos Aires, Argentina",
    "latitud": "-34.5855791",
    "longitud": "-58.43662029999999"
  },
  {
    "codigo": "471806",
    "nombre": "THE ROXY",
    "localidad": "CHACARITA",
    "direccion": "CORONEL NICETO VEGA 5542",
    "segmentacion": "ENTRETENIMIENTO",
    "horario": "NOCHE",
    "descripcion": "Experiencia de comida, bebida y música",
    "lb": "QUILMES",
    "eventos_promociones": null,
    "direccionFormateada": "Cnel. Niceto Vega 5542, C1414BFD Cdad. Autónoma de Buenos Aires, Argentina",
    "latitud": "-34.5871991",
    "longitud": "-58.4390635"
  },
  {
    "codigo": "408427",
    "nombre": "SHAREWOOD",
    "localidad": "PILAR",
    "direccion": "DARREGUEIRA 2010",
    "segmentacion": "DEPORTE",
    "horario": "MEDIO DIA / TARDE",
    "descripcion": "Bar tipo playa, perfecto para hacer wakebord y pasar el dia",
    "lb": "CORONA",
    "eventos_promociones": null,
    "direccionFormateada": "Darregueira 2010, B1888 Florencio Varela, Provincia de Buenos Aires, Argentina",
    "latitud": "-34.7919665",
    "longitud": "-58.2897337"
  },
  {
    "codigo": "504909",
    "nombre": "JET",
    "localidad": "COSTANERA",
    "direccion": "AV. COSTANERA RAFAEL OBLIGADO 4801",
    "segmentacion": "BOLICHE",
    "horario": "NOCHE",
    "descripcion": "Boliche",
    "lb": "STELLA ARTOIS",
    "eventos_promociones": null,
    "direccionFormateada": "Av. Costanera Rafael Obligado 4801, C1426EQG Cdad. Autónoma de Buenos Aires, Argentina",
    "latitud": "-34.5519676",
    "longitud": "-58.42598570000001"
  },
  {
    "codigo": "411394",
    "nombre": "BALI",
    "localidad": "COSTANERA",
    "direccion": "AV RAFAEL Y JERONIMO (COMPLEJO COSTA ) 0",
    "segmentacion": "BOLICHE",
    "horario": "NOCHE",
    "descripcion": "Boliche los viernes",
    "lb": "",
    "eventos_promociones": null,
    "direccionFormateada": "Av. Boedo 49, C1204 Cdad. Autónoma de Buenos Aires, Argentina",
    "latitud": "-34.6118737",
    "longitud": "-58.41833869999999"
  },
  {
    "codigo": "457275",
    "nombre": "MOROCCO",
    "localidad": "COSTANERA",
    "direccion": "COSTA SALGUERO 01",
    "segmentacion": "BOLICHE",
    "horario": "NOCHE",
    "descripcion": "Boliche",
    "lb": "",
    "eventos_promociones": null,
    "direccionFormateada": "Av. Costanera Rafael Obligado 1, C1428DYC Cdad. Autónoma de Buenos Aires, Argentina",
    "latitud": "-34.5508565",
    "longitud": "-58.4294439"
  },
  {
    "codigo": "501608",
    "nombre": "COSTA 7070",
    "localidad": "COSTANERA",
    "direccion": "PARACAS 13",
    "segmentacion": "BOLICHE",
    "horario": "NOCHE",
    "descripcion": "Gastronomía de alto nivel, coctelería de autor y una propuesta nocturna que invita a comer, beber y bailar.",
    "lb": "STELLA ARTOIS",
    "eventos_promociones": null,
    "direccionFormateada": "Paracas 13, C1275AFB Cdad. Autónoma de Buenos Aires, Argentina",
    "latitud": "-34.6312444",
    "longitud": "-58.3814204"
  },
  {
    "codigo": "386985",
    "nombre": "DON JULIO",
    "localidad": "PALERMO",
    "direccion": "GUATEMALA 4699",
    "segmentacion": "RESTAURANTE",
    "horario": "MEDIO DIA / NOCHE",
    "descripcion": "Parrilla de fama mundial, recomendada por chefs y críticos; Cortes premium y bodega destacada",
    "lb": "",
    "eventos_promociones": null,
    "direccionFormateada": "Guatemala 4699, C1425 Cdad. Autónoma de Buenos Aires, Argentina",
    "latitud": "-34.5863164",
    "longitud": "-58.42426889999999"
  },
  {
    "codigo": "324450",
    "nombre": "ENERO",
    "localidad": "COSTANERA",
    "direccion": "AV COSTANERA RAFAEL OBLIGADO 6710",
    "segmentacion": "RESTAURANTE",
    "horario": "MEDIO DIA / TARDE / NOCHE",
    "descripcion": "Restaurante con vibra de playa, platos frescos y coctelería ideal para tardes soleadas.",
    "lb": "CORONA",
    "eventos_promociones": null,
    "direccionFormateada": "Av. Costanera Rafael Obligado 6710, C1428 Cdad. Autónoma de Buenos Aires, Argentina",
    "latitud": "-34.543101",
    "longitud": "-58.4348966"
  },
  {
    "codigo": "510465",
    "nombre": "MALLOYS COSTANERA",
    "localidad": "COSTANERA",
    "direccion": "AV. COSTANERA RAFAEL OBLIGADO 1221",
    "segmentacion": "RESTAURANTE",
    "horario": "MEDIO DIA / TARDE / NOCHE",
    "descripcion": "Bar de costa en la ciudad",
    "lb": "CORONA",
    "eventos_promociones": null,
    "direccionFormateada": "Av. Costanera Rafael Obligado 1221, C1425 Cdad. Autónoma de Buenos Aires, Argentina",
    "latitud": "-34.5701784",
    "longitud": "-58.3982256"
  },
  {
    "codigo": "438549",
    "nombre": "NIÑO GORDO",
    "localidad": "PALERMO",
    "direccion": "THAMES 1696",
    "segmentacion": "RESTAURANTE",
    "horario": "NOCHE",
    "descripcion": "Parrilla asiatica que propone un mix de sabpres de oriente unidos a la comida porteña",
    "lb": "STELLA ARTOIS",
    "eventos_promociones": null,
    "direccionFormateada": "Thames 1696, C1414 Cdad. Autónoma de Buenos Aires, Argentina",
    "latitud": "-34.5873672",
    "longitud": "-58.43035219999999"
  },
  {
    "codigo": "367655",
    "nombre": "LA PALERMITANA SRL",
    "localidad": "PALERMO",
    "direccion": "FITZ ROY 2238",
    "segmentacion": "RESTAURANTE",
    "horario": "MEDIO DIA / NOCHE",
    "descripcion": "Parrilla decorada con camisetas de fútbol, famosa por sus milanesas XL.",
    "lb": "QUILMES",
    "eventos_promociones": null,
    "direccionFormateada": "Fitz Roy 2238, C1425FVD Cdad. Autónoma de Buenos Aires, Argentina",
    "latitud": "-34.5798968",
    "longitud": "-58.4318061"
  },
  {
    "codigo": "332982",
    "nombre": "OSAKA",
    "localidad": "PALERMO",
    "direccion": "CONESA 110",
    "segmentacion": "RESTAURANTE",
    "horario": "MEDIO DIA / NOCHE",
    "descripcion": "Alta cocina nikkei premiada; sushi, ceviches y sabores de lujo.",
    "lb": "STELLA ARTOIS",
    "eventos_promociones": null,
    "direccionFormateada": "Conesa 110, C1426 Cdad. Autónoma de Buenos Aires, Argentina",
    "latitud": "-34.5785365",
    "longitud": "-58.4412489"
  },
  {
    "codigo": "487321",
    "nombre": "SENDERO",
    "localidad": "COSTANERA",
    "direccion": "RAFAEL OBLIGADO 6650",
    "segmentacion": "RESTAURANTE",
    "horario": "NOCHE",
    "descripcion": "Cocina de producto y cocteles de autor",
    "lb": "STELLA ARTOIS",
    "eventos_promociones": null,
    "direccionFormateada": "Av. Costanera Rafael Obligado 6650, C1428 Cdad. Autónoma de Buenos Aires, Argentina",
    "latitud": "-34.5426532",
    "longitud": "-58.43603719999999"
  },
  {
    "codigo": "423957",
    "nombre": "DOÑA TOTA",
    "localidad": "PALERMO",
    "direccion": "COSTA RICA 4486",
    "segmentacion": "RESTAURANTE",
    "horario": "MEDIO DIA / NOCHE",
    "descripcion": "Parrilla de barrio con porciones generosas y ambiente auténtico.",
    "lb": "QUILMES",
    "eventos_promociones": null,
    "direccionFormateada": "Costa Rica 4486, C1414 Cdad. Autónoma de Buenos Aires, Argentina",
    "latitud": "-34.589645",
    "longitud": "-58.42502140000001"
  },
  {
    "codigo": "475675",
    "nombre": "MARO",
    "localidad": "COSTANERA",
    "direccion": "AV. COSTANERA RAFAEL OBLIGADO 6551",
    "segmentacion": "RESTAURANTE",
    "horario": "NOCHE",
    "descripcion": "Inspirados en la cocina fusion. Cocina japomediterranea",
    "lb": "",
    "eventos_promociones": null,
    "direccionFormateada": "Av. Costanera 6551, C1428 Cdad. Autónoma de Buenos Aires, Argentina",
    "latitud": "-34.5426364",
    "longitud": "-58.436154"
  },
  {
    "codigo": "370847",
    "nombre": "PEUTEO",
    "localidad": "PALERMO",
    "direccion": "GURRUCHAGA 1867",
    "segmentacion": "BAR",
    "horario": "NOCHE",
    "descripcion": "Bar gay, conocido por sus noches de drag queens",
    "lb": "BRAHMA",
    "eventos_promociones": null,
    "direccionFormateada": "Gurruchaga 1867, C1414DIK Cdad. Autónoma de Buenos Aires, Argentina",
    "latitud": "-34.5877651",
    "longitud": "-58.4264985"
  },
  {
    "codigo": "455351",
    "nombre": "VORTERIX",
    "localidad": "COLEGIALES",
    "direccion": "AV. FEDERICO LACROZE 3455",
    "segmentacion": "ENTRETENIMIENTO",
    "horario": "NOCHE",
    "descripcion": "Teatro y club icónico para shows en vivo, sobre todo de rock y trap",
    "lb": "QUILMES",
    "eventos_promociones": null,
    "direccionFormateada": "Av. Federico Lacroze 3455, C1426 Cdad. Autónoma de Buenos Aires, Argentina",
    "latitud": "-34.5801682",
    "longitud": "-58.4509113"
  },
  {
    "codigo": "429059",
    "nombre": "PARU",
    "localidad": "NORDELTA",
    "direccion": "AV. DEL PUERTO 240",
    "segmentacion": "RESTAURANTE",
    "horario": "MEDIO DIA / NOCHE",
    "descripcion": "Cocina Nikkei. Carnes que coquetean entre la intensidad peruana con la elegancia japonesa",
    "lb": "",
    "eventos_promociones": null,
    "direccionFormateada": "Av. del Puerto 240, B1671 Rincón de Milberg, Provincia de Buenos Aires, Argentina",
    "latitud": "-34.3966749",
    "longitud": "-58.64784719999999"
  },
  {
    "codigo": "384459",
    "nombre": "PARU",
    "localidad": "NUÑEZ",
    "direccion": "AV. AMANCIO ALCORTA 1647",
    "segmentacion": "RESTAURANTE",
    "horario": "MEDIO DIA / NOCHE",
    "descripcion": "Cocina Nikkei. Carnes que coquetean entre la intensidad peruana con la elegancia japonesa",
    "lb": "",
    "eventos_promociones": null,
    "direccionFormateada": "Av. Amancio Alcorta 1647, C1283 Cdad. Autónoma de Buenos Aires, Argentina",
    "latitud": "-34.6362973",
    "longitud": "-58.3861287"
  },
  {
    "codigo": "472592",
    "nombre": "CARNAL",
    "localidad": "PALERMO",
    "direccion": "CORONEL NICETO VEGA 5511",
    "segmentacion": "BAR",
    "horario": "NOCHE",
    "descripcion": "Donde la pasion por la gastronomia y la musica se encuentran con la buena vibra",
    "lb": "",
    "eventos_promociones": null,
    "direccionFormateada": "Cnel. Niceto Vega 5511, C1414BFC Cdad. Autónoma de Buenos Aires, Argentina",
    "latitud": "-34.5871298",
    "longitud": "-58.4383929"
  },
  {
    "codigo": "537707",
    "nombre": "FERONA",
    "localidad": "PALERMO",
    "direccion": "GORRITI LOCAL 5516",
    "segmentacion": "RESTAURANTE",
    "horario": "NOCHE",
    "descripcion": "bar/boliche para bailar musica vintage",
    "lb": "",
    "eventos_promociones": null,
    "direccionFormateada": "Gorriti, Cdad. Autónoma de Buenos Aires, Argentina",
    "latitud": "-34.5903206",
    "longitud": "-58.4297553"
  },
  {
    "codigo": "446896",
    "nombre": "CHUI",
    "localidad": "VILLA CRESPO",
    "direccion": "LOYOLA 1250",
    "segmentacion": "RESTAURANTE",
    "horario": "MEDIO DIA / NOCHE",
    "descripcion": "Recomendado por la guia michelin",
    "lb": "",
    "eventos_promociones": null,
    "direccionFormateada": "Loyola 1250, C1414 C1414AVB, Cdad. Autónoma de Buenos Aires, Argentina",
    "latitud": "-34.5901281",
    "longitud": "-58.4411172"
  },
  {
    "codigo": "457922",
    "nombre": "LARDITO",
    "localidad": "CHACARITA",
    "direccion": "AV. JORGE NEWBERY 3655",
    "segmentacion": "RESTAURANTE",
    "horario": "NOCHE",
    "descripcion": "Pionero en los pequeños platitos llevados a la alta gastronomia y vinos de baja intervencion",
    "lb": "STELLA ARTOIS",
    "eventos_promociones": null,
    "direccionFormateada": "Av. Jorge Newbery 3655, C2410 Cdad. Autónoma de Buenos Aires, Argentina",
    "latitud": "-34.5843685",
    "longitud": "-58.4495557"
  },
  {
    "codigo": "454106",
    "nombre": "EMPERADOR MEIJI",
    "localidad": "PALERMO",
    "direccion": "HONDURAS 5902",
    "segmentacion": "RESTAURANTE",
    "horario": "MEDIO DIA / NOCHE",
    "descripcion": "Reconocido por su brasero japones",
    "lb": "STELLA ARTOIS",
    "eventos_promociones": null,
    "direccionFormateada": "Honduras 5902, C1414BNL C1414BNL, Cdad. Autónoma de Buenos Aires, Argentina",
    "latitud": "-34.5817029",
    "longitud": "-58.439618"
  },
  {
    "codigo": "536371",
    "nombre": "Picaron",
    "localidad": "CHACARITA",
    "direccion": "AV. DORREGO 866",
    "segmentacion": "RESTAURANTE",
    "horario": "MEDIO DIA / NOCHE",
    "descripcion": "Recomendado por la guia michelin",
    "lb": "",
    "eventos_promociones": null,
    "direccionFormateada": "Av. Dorrego 866, C1414CKQ Cdad. Autónoma de Buenos Aires, Argentina",
    "latitud": "-34.5910416",
    "longitud": "-58.44723689999999"
  },
  {
    "codigo": "472321",
    "nombre": "EVELIA",
    "localidad": "NUÑEZ",
    "direccion": "CAMPOS SALLES 1712",
    "segmentacion": "RESTAURANTE",
    "horario": "MEDIO DIA / NOCHE",
    "descripcion": "Destacadas pastas caseras",
    "lb": "",
    "eventos_promociones": null,
    "direccionFormateada": "Campos Salles 1712, C1429CEF Cdad. Autónoma de Buenos Aires, Argentina",
    "latitud": "-34.5484041",
    "longitud": "-58.45839429999999"
  },
  {
    "codigo": "528195",
    "nombre": "VICTOR AUDIO BAR",
    "localidad": "PALERMO",
    "direccion": "SOLER 5130",
    "segmentacion": "BAR",
    "horario": "NOCHE",
    "descripcion": "Experiencia sensorial de la mano de vinilos donde el Martini es rey",
    "lb": "",
    "eventos_promociones": null,
    "direccionFormateada": "Soler 5130, C1425BXN Cdad. Autónoma de Buenos Aires, Argentina",
    "latitud": "-34.5839098",
    "longitud": "-58.42910659999999"
  },
  {
    "codigo": "505447",
    "nombre": "EL COLMO",
    "localidad": "PALERMO",
    "direccion": "COSTA RICA 5972",
    "segmentacion": "RESTAURANTE",
    "horario": "MEDIO DIA / TARDE",
    "descripcion": "Sandwiches gourmets y reconocido tiramisu",
    "lb": "",
    "eventos_promociones": null,
    "direccionFormateada": "Costa Rica 5972, C1414 Cdad. Autónoma de Buenos Aires, Argentina",
    "latitud": "-34.5798083",
    "longitud": "-58.438492"
  },
  {
    "codigo": "473332",
    "nombre": "TOMAHAWK",
    "localidad": "PALERMO",
    "direccion": "EL SALVADOR 6002",
    "segmentacion": "RESTAURANTE",
    "horario": "MEDIO DIA / NOCHE",
    "descripcion": "Parrilla Premium",
    "lb": "",
    "eventos_promociones": null,
    "direccionFormateada": "El Salvador 6002, C1414BQN C1414BQN, Cdad. Autónoma de Buenos Aires, Argentina",
    "latitud": "-34.5800446",
    "longitud": "-58.4395739"
  },
  {
    "codigo": "525344",
    "nombre": "OLI CAFÉ",
    "localidad": "PALERMO",
    "direccion": "COSTA RICA 6020",
    "segmentacion": "CAFE / CONFITERIA",
    "horario": "MAÑANA / MEDIO DIA / TARDE",
    "descripcion": "Café de especialidad con pastelería casera y ambiente minimalista.",
    "lb": "",
    "eventos_promociones": null,
    "direccionFormateada": "Costa Rica 6020, C1414BTN Cdad. Autónoma de Buenos Aires, Argentina",
    "latitud": "-34.5793295",
    "longitud": "-58.4391354"
  },
  {
    "codigo": "431847",
    "nombre": "AUGUSTA",
    "localidad": "PALERMO",
    "direccion": "AV. ERNESTO TORNQUIST 6385",
    "segmentacion": "BOLICHE",
    "horario": "NOCHE",
    "descripcion": "Bar boliche ideal para las noches de verano",
    "lb": "CORONA",
    "eventos_promociones": null,
    "direccionFormateada": "Av. Ernesto Tornquist 6385, C1420 Cdad. Autónoma de Buenos Aires, Argentina",
    "latitud": "-34.557851",
    "longitud": "-58.4348812"
  },
  {
    "codigo": "513643",
    "nombre": "KALIS PIZZA",
    "localidad": "NUÑEZ",
    "direccion": "O'HIGGINS 3578",
    "segmentacion": "RESTAURANTE",
    "horario": "NOCHE",
    "descripcion": "Pizza con aspecto de NY style con  ingredientes italianos de primera línea",
    "lb": "STELLA ARTOIS",
    "eventos_promociones": null,
    "direccionFormateada": "O'Higgins 3578, C1429BBP Cdad. Autónoma de Buenos Aires, Argentina",
    "latitud": "-34.5474187",
    "longitud": "-58.46453109999999"
  },
  {
    "codigo": "444379",
    "nombre": "MAUER",
    "localidad": "NUÑEZ",
    "direccion": "O'HIGGINS 3573",
    "segmentacion": "BAR",
    "horario": "TARDE / NOCHE",
    "descripcion": "Bar inspirado en Berlín",
    "lb": "",
    "eventos_promociones": null,
    "direccionFormateada": "O'Higgins 3573, C1429 Cdad. Autónoma de Buenos Aires, Argentina",
    "latitud": "-34.5471389",
    "longitud": "-58.4639641"
  },
  {
    "codigo": "462830",
    "nombre": "PIEDRA PASILLO",
    "localidad": "NUÑEZ",
    "direccion": "CAMPOS SALLES 2145",
    "segmentacion": "RESTAURANTE",
    "horario": "NOCHE",
    "descripcion": "Recomendado por la guia michelin",
    "lb": "STELLA ARTOIS",
    "eventos_promociones": null,
    "direccionFormateada": "Campos Salles 2145, C1429 Cdad. Autónoma de Buenos Aires, Argentina",
    "latitud": "-34.5506886",
    "longitud": "-58.4633853"
  },
  {
    "codigo": "482262",
    "nombre": "NESS",
    "localidad": "NUÑEZ",
    "direccion": "JARAMILLO 1886",
    "segmentacion": "RESTAURANTE",
    "horario": "MEDIO DIA / TARDE / NOCHE",
    "descripcion": "Cocina basada en el calor de las brasas y materias primas de calidad, con mucho sabor.",
    "lb": "STELLA ARTOIS",
    "eventos_promociones": null,
    "direccionFormateada": "Jaramillo 1886, C1429CQH Cdad. Autónoma de Buenos Aires, Argentina",
    "latitud": "-34.545553",
    "longitud": "-58.46361580000001"
  },
  {
    "codigo": "463556",
    "nombre": "KONA",
    "localidad": "NUÑEZ",
    "direccion": "MARISCAL ANTONIO JOSE DE SUCRE 696",
    "segmentacion": "RESTAURANTE",
    "horario": "NOCHE",
    "descripcion": "Cocina a la vista, vinos y karaoke",
    "lb": "",
    "eventos_promociones": null,
    "direccionFormateada": "Mcal, Mcal. Antonio José de Sucre 696, C1428DUB Cdad. Autónoma de Buenos Aires, Argentina",
    "latitud": "-34.5532378",
    "longitud": "-58.4369539"
  },
  {
    "codigo": "468579",
    "nombre": "PUERTA UNO",
    "localidad": "BELGRANO",
    "direccion": "AV. JURAMENTO 1665",
    "segmentacion": "BAR",
    "horario": "TARDE / NOCHE",
    "descripcion": "Speakeasy con los mejores cocteles del chinatown",
    "lb": "",
    "eventos_promociones": null,
    "direccionFormateada": "Av. Juramento 1665, C1428DMU Cdad. Autónoma de Buenos Aires, Argentina",
    "latitud": "-34.5577008",
    "longitud": "-58.4496991"
  },
  {
    "codigo": "450991",
    "nombre": "GONTRAN CHERRIER",
    "localidad": "BELGRANO",
    "direccion": "ZABALA 1901",
    "segmentacion": "CAFE / CONFITERIA",
    "horario": "MAÑANA / MEDIO DIA / TARDE",
    "descripcion": "L´artisan boulanger de Paris",
    "lb": "",
    "eventos_promociones": null,
    "direccionFormateada": "Zabala 1901, C1426DQI C1426DQI, Cdad. Autónoma de Buenos Aires, Argentina",
    "latitud": "-34.5648",
    "longitud": "-58.4448859"
  },
  {
    "codigo": "463986",
    "nombre": "NORI MOTO",
    "localidad": "NUÑEZ",
    "direccion": "AV. DEL LIBERTADOR 6739",
    "segmentacion": "RESTAURANTE",
    "horario": "MEDIO DIA / NOCHE",
    "descripcion": "Primer handroll bar en Buenos Aires",
    "lb": "STELLA ARTOIS",
    "eventos_promociones": null,
    "direccionFormateada": "Av. del Libertador 6739, C1429BMA Cdad. Autónoma de Buenos Aires, Argentina",
    "latitud": "-34.5500697",
    "longitud": "-58.45296519999999"
  },
  {
    "codigo": "468002",
    "nombre": "FONTANA",
    "localidad": "NUÑEZ",
    "direccion": "MANUELA PEDRAZA 2032",
    "segmentacion": "BAR",
    "horario": "TARDE / NOCHE",
    "descripcion": "Experiencia gourmet y vanguardista, con barra interior, exterior y un espectacular patio",
    "lb": "STELLA ARTOIS",
    "eventos_promociones": null,
    "direccionFormateada": "Manuela Pedraza 2032, C1429 Cdad. Autónoma de Buenos Aires, Argentina",
    "latitud": "-34.5495546",
    "longitud": "-58.4627431"
  },
  {
    "codigo": "472302",
    "nombre": "BANU BISTRO",
    "localidad": "NUÑEZ",
    "direccion": "NUNEZ 1616",
    "segmentacion": "RESTAURANTE",
    "horario": "MAÑANA / MEDIO DIA / TARDE 7 NOCHE",
    "descripcion": "Vinos que acompañan y elevan cada plato. Carta llena de sabores",
    "lb": "",
    "eventos_promociones": null,
    "direccionFormateada": "Nuñez 1616, C1429 Cdad. Autónoma de Buenos Aires, Argentina",
    "latitud": "-34.5460529",
    "longitud": "-58.46006009999999"
  },
  {
    "codigo": "458782",
    "nombre": "CULTURAL MATIENZO",
    "localidad": "PALERMO",
    "direccion": "AV. JUAN BAUTISTA JUSTO 2959",
    "segmentacion": "ENTRETENIMIENTO",
    "horario": "NOCHE",
    "descripcion": "El Matienzo está a mitad de camino entre un centro cultural y un club nocturno.",
    "lb": "",
    "eventos_promociones": null,
    "direccionFormateada": "Av. Juan B. Justo 2959, C1414CXF Villa Crespo, Cdad. Autónoma de Buenos Aires, Argentina",
    "latitud": "-34.5974303",
    "longitud": "-58.44842629999999"
  },
  {
    "codigo": "459113",
    "nombre": "Campo Bravo",
    "localidad": "PALERMO",
    "direccion": "HONDURAS 5600",
    "segmentacion": "RESTAURANTE",
    "horario": "MEDIO DIA / NOCHE",
    "descripcion": "Expertos en Parrilla Argentina y Cocina Internacional. 100% sin TACC, opciones keto, veganas, sin lactosa, etc",
    "lb": "",
    "eventos_promociones": null,
    "direccionFormateada": "Honduras 5600, C1414 Cdad. Autónoma de Buenos Aires, Argentina",
    "latitud": "-34.5843478",
    "longitud": "-58.43641539999999"
  },
  {
    "codigo": "125545",
    "nombre": "INK",
    "localidad": "PALERMO",
    "direccion": "CNEL NICETO VEGA 5631",
    "segmentacion": "BOLICHE",
    "horario": "NOCHE",
    "descripcion": "Boliche",
    "lb": "",
    "eventos_promociones": null,
    "direccionFormateada": "Cnel. Niceto Vega 5635, C1414BFE Cdad. Autónoma de Buenos Aires, Argentina",
    "latitud": "-34.5863108",
    "longitud": "-58.43944930000001"
  },
  {
    "codigo": "509275",
    "nombre": "DON GATO",
    "localidad": "PALERMO",
    "direccion": "FITZ ROY 930",
    "segmentacion": "BAR",
    "horario": "NOCHE",
    "descripcion": "Bar temático con estética kitsch y ambiente nocturno relajado. Especializado en coctelería creativa y picoteo informal. Popular por su música en vivo y propuestas de DJ sets.",
    "lb": "",
    "eventos_promociones": null,
    "direccionFormateada": "Fitz Roy 930, C1414 Cdad. Autónoma de Buenos Aires, Argentina",
    "latitud": "-34.5902294",
    "longitud": "-58.4441028"
  },
  {
    "codigo": "457303",
    "nombre": "ART LAB",
    "localidad": "CHACARITA",
    "direccion": "ROSETI 91",
    "segmentacion": "ENTRETENIMIENTO",
    "horario": "NOCHE",
    "descripcion": "Laboratiorio creativo de Arte y Tecnologia",
    "lb": "",
    "eventos_promociones": null,
    "direccionFormateada": "Roseti 93, C1427 Cdad. Autónoma de Buenos Aires, Argentina",
    "latitud": "-34.5861384",
    "longitud": "-58.4463198"
  },
  {
    "codigo": "522867",
    "nombre": "FRAGA",
    "localidad": "CHACARITA",
    "direccion": "AV. DORREGO 1198",
    "segmentacion": "RESTAURANTE",
    "horario": "NOCHE",
    "descripcion": "Comida estilo bodegon Argentino",
    "lb": "",
    "eventos_promociones": null,
    "direccionFormateada": "Av. Dorrego 1198, C1414CKT Cdad. Autónoma de Buenos Aires, Argentina",
    "latitud": "-34.5877065",
    "longitud": "-58.4458853"
  },
  {
    "codigo": "463144",
    "nombre": "MAURE PARRILLA",
    "localidad": "CHACARITA",
    "direccion": "AV. CORDOBA 6401",
    "segmentacion": "RESTAURANTE",
    "horario": "NOCHE",
    "descripcion": "Carne argentina en un parrilla de Chacarita.⁣",
    "lb": "",
    "eventos_promociones": null,
    "direccionFormateada": "Av. Córdoba 6401, C1426 Cdad. Autónoma de Buenos Aires, Argentina",
    "latitud": "-34.58226",
    "longitud": "-58.449918"
  },
  {
    "codigo": "433096",
    "nombre": "GORRITI ART CENTER",
    "localidad": "PALERMO",
    "direccion": "GORRITI 5464",
    "segmentacion": "ENTRETENIMIENTO",
    "horario": "NOCHE",
    "descripcion": "Venue para disfrutar distintas performances y eventos como SEX",
    "lb": "",
    "eventos_promociones": null,
    "direccionFormateada": "CWF, Av. Juan B. Justo 1617, C1414 Cdad. Autónoma de Buenos Aires, Argentina",
    "latitud": "-34.5860306",
    "longitud": "-58.43608030000001"
  },
  {
    "codigo": "434971",
    "nombre": "TIGRE MORADO",
    "localidad": "PALERMO",
    "direccion": "DOCTOR EMILIO RAVIGNANI 1691",
    "segmentacion": "RESTAURANTE",
    "horario": "MEDIO DIA / NOCHE",
    "descripcion": "Cebicheria",
    "lb": "",
    "eventos_promociones": null,
    "direccionFormateada": "Doctor Emilio Ravignani 1691, C1414 Cdad. Autónoma de Buenos Aires, Argentina",
    "latitud": "-34.5819334",
    "longitud": "-58.4395016"
  },
  {
    "codigo": "457179",
    "nombre": "LUCRECIA",
    "localidad": "CHACARITA",
    "direccion": "AV. JORGE NEWBERY 3519",
    "segmentacion": "BAR",
    "horario": "NOCHE",
    "descripcion": "pianobar",
    "lb": "ANDES ORIGEN",
    "eventos_promociones": null,
    "direccionFormateada": "Av. Jorge Newbery 3519, C1427 Cdad. Autónoma de Buenos Aires, Argentina",
    "latitud": "-34.5829642",
    "longitud": "-58.4490944"
  },
  {
    "codigo": "458624",
    "nombre": "LAS FLORES",
    "localidad": "PALERMO",
    "direccion": "GORRITI 5870",
    "segmentacion": "RESTAURANTE",
    "horario": "MAÑANA / MEDIO DIA / TARDE / NOCHE",
    "descripcion": "Restaurante libre de gluten",
    "lb": "",
    "eventos_promociones": null,
    "direccionFormateada": "Gorriti 5870, C1414 Cdad. Autónoma de Buenos Aires, Argentina",
    "latitud": "-34.5829016",
    "longitud": "-58.4400281"
  },
  {
    "codigo": "468773",
    "nombre": "il ballo del mattone",
    "localidad": "VILLA CRESPO",
    "direccion": "ANGEL JUSTINIANO CARRANZA 1756",
    "segmentacion": "RESTAURANTE",
    "horario": "MEDIO DIA / NOCHE",
    "descripcion": "Espacio atípico que combina comida a la italiana casera con una intensa actividad artística.",
    "lb": "",
    "eventos_promociones": null,
    "direccionFormateada": "Ángel Justiniano Carranza 1756, C1414 Cdad. Autónoma de Buenos Aires, Argentina",
    "latitud": "-34.5818341",
    "longitud": "-58.4380584"
  },
  {
    "codigo": "445531",
    "nombre": "SIFON",
    "localidad": "CHACARITA",
    "direccion": "AV. JORGE NEWBERY 3881",
    "segmentacion": "RESTAURANTE",
    "horario": "TARDE / NOCHE",
    "descripcion": "Restaurante de platitos",
    "lb": "",
    "eventos_promociones": null,
    "direccionFormateada": "Av. Jorge Newbery 3881, C1427 Cdad. Autónoma de Buenos Aires, Argentina",
    "latitud": "-34.5866007",
    "longitud": "-58.4503091"
  },
  {
    "codigo": "410471",
    "nombre": "LA FUERZA",
    "localidad": "CHACARITA",
    "direccion": "AVDA DORREGO 1409",
    "segmentacion": "RESTAURANTE",
    "horario": "TARDE / NOCHE",
    "descripcion": "Vermutería con producción propia de vermut",
    "lb": "",
    "eventos_promociones": null,
    "direccionFormateada": "Av. Dorrego 1409, C1414CKJ Cdad. Autónoma de Buenos Aires, Argentina",
    "latitud": "-34.5856066",
    "longitud": "-58.4449412"
  },
  {
    "codigo": "438568",
    "nombre": "MERCADO DE LINIERS",
    "localidad": "PALERMO",
    "direccion": "GORRITI 6012",
    "segmentacion": "RESTAURANTE",
    "horario": "MEDIO DIA / NOCHE",
    "descripcion": "Recomendado por la guia michelin",
    "lb": "",
    "eventos_promociones": null,
    "direccionFormateada": "BKN, Gorriti 6012, C1414 C1414BKN, Cdad. Autónoma de Buenos Aires, Argentina",
    "latitud": "-34.5817402",
    "longitud": "-58.4417182"
  },
  {
    "codigo": "459378",
    "nombre": "HELKA WINE LOUNGE",
    "localidad": "COLEGIALES",
    "direccion": "CAPITAN GRAL. RAMON FREIRE 1117",
    "segmentacion": "RESTAURANTE",
    "horario": "NOCHE",
    "descripcion": "Wine & Experience Bar",
    "lb": "",
    "eventos_promociones": null,
    "direccionFormateada": "Cap. Gral. Ramón Freire 1117, C1426 Cdad. Autónoma de Buenos Aires, Argentina",
    "latitud": "-34.5742396",
    "longitud": "-58.45438660000001"
  },
  {
    "codigo": "460026",
    "nombre": "BEATFLOW",
    "localidad": "PALERMO",
    "direccion": "AV CORDOBA 5509",
    "segmentacion": "ENTRETENIMIENTO",
    "horario": "NOCHE",
    "descripcion": "Club de artistas emergentes",
    "lb": "",
    "eventos_promociones": null,
    "direccionFormateada": "C1414BBB, Av. Córdoba 5509, C1414 BBB, Cdad. Autónoma de Buenos Aires, Argentina",
    "latitud": "-34.5878463",
    "longitud": "-58.4393962"
  },
  {
    "codigo": "465802",
    "nombre": "ANAFE",
    "localidad": "COLEGIALES",
    "direccion": "VIRREY AVILES 3216",
    "segmentacion": "RESTAURANTE",
    "horario": "MEDIO DIA / NOCHE",
    "descripcion": "Técnicas asiáticas para platos italianos, sabores de medio oriente para preparaciones francesas y así, al infinito",
    "lb": "",
    "eventos_promociones": null,
    "direccionFormateada": "Virrey Avilés 3216, C1426 Cdad. Autónoma de Buenos Aires, Argentina",
    "latitud": "-34.5739206",
    "longitud": "-58.4589269"
  },
  {
    "codigo": "468844",
    "nombre": "OSTENDE",
    "localidad": "COLEGIALES",
    "direccion": "VIRREY LORETO 3315",
    "segmentacion": "RESTAURANTE",
    "horario": "TARDE / NOCHE",
    "descripcion": "Es el bodegón vintage de Colegiales por excelencia.",
    "lb": "",
    "eventos_promociones": null,
    "direccionFormateada": "Virrey Loreto 3303, C1426 Cdad. Autónoma de Buenos Aires, Argentina",
    "latitud": "-34.5755804",
    "longitud": "-58.4565571"
  },
  {
    "codigo": "471296",
    "nombre": "MALO BY FRANCO",
    "localidad": "COLEGIALES",
    "direccion": "ZAPIOLA 141",
    "segmentacion": "RESTAURANTE",
    "horario": "MEDIO DIA / NOCHE",
    "descripcion": "Comida mediterranea",
    "lb": "",
    "eventos_promociones": null,
    "direccionFormateada": "Zapiola 141, C1426 Cdad. Autónoma de Buenos Aires, Argentina",
    "latitud": "-34.5787749",
    "longitud": "-58.4428546"
  },
  {
    "codigo": "439126",
    "nombre": "IL BALLO DEL MATTONE",
    "localidad": "PALERMO",
    "direccion": "ANGEL JUSTINIANO CARRANZA PB 1756",
    "segmentacion": "RESTAURANTE",
    "horario": "MEDIO DIA / NOCHE",
    "descripcion": "Espacio atípico que combina comida a la italiana casera con una intensa actividad artística.",
    "lb": "",
    "eventos_promociones": null,
    "direccionFormateada": "Ángel Justiniano Carranza 1756, C1414 Cdad. Autónoma de Buenos Aires, Argentina",
    "latitud": "-34.5818341",
    "longitud": "-58.4380584"
  },
  {
    "codigo": "449741",
    "nombre": "DONNET",
    "localidad": "CHACARITA",
    "direccion": "FRAGA 675",
    "segmentacion": "RESTAURANTE",
    "horario": "MEDIO DIA / NOCHE",
    "descripcion": "Primer restaurante en Argentina dedicado a los hongos",
    "lb": "",
    "eventos_promociones": null,
    "direccionFormateada": "Fraga 675, Fraga 683, C1426 Cdad. Autónoma de Buenos Aires, Argentina",
    "latitud": "-34.5844245",
    "longitud": "-58.4530331"
  },
  {
    "codigo": "411851",
    "nombre": "FESTIVAL BAR",
    "localidad": "PALERMO",
    "direccion": "JOSE IGNACIO GORRITI 5741",
    "segmentacion": "BAR",
    "horario": "NOCHE",
    "descripcion": "Bar ideal para tomar algo y bailar un rato",
    "lb": "STELLA ARTOIS",
    "eventos_promociones": null,
    "direccionFormateada": "Jose ignacio Gorriti 5741, C1414BSS Cdad. Autónoma de Buenos Aires, Argentina",
    "latitud": "-34.5836338",
    "longitud": "-58.4387512"
  },
  {
    "codigo": "452946",
    "nombre": "HONDURAS HOLLYWOOD",
    "localidad": "PALERMO",
    "direccion": "HONDURAS 5535",
    "segmentacion": "BOLICHE",
    "horario": "NOCHE",
    "descripcion": "Boliche",
    "lb": "",
    "eventos_promociones": null,
    "direccionFormateada": "Honduras 5535, C1414BNC Cdad. Autónoma de Buenos Aires, Argentina",
    "latitud": "-34.5844583",
    "longitud": "-58.435665"
  },
  {
    "codigo": "433344",
    "nombre": "COWI",
    "localidad": "BELGRANO",
    "direccion": "3 DE FEBRERO 1167",
    "segmentacion": "RESTAURANTE",
    "horario": "TARDE / NOCHE",
    "descripcion": "Bar de vinos",
    "lb": "",
    "eventos_promociones": null,
    "direccionFormateada": "3 de Febrero 1167, C1425 Cdad. Autónoma de Buenos Aires, Argentina",
    "latitud": "-34.568292",
    "longitud": "-58.4441821"
  },
  {
    "codigo": "484506",
    "nombre": "SULLIVAN",
    "localidad": "PALERMO",
    "direccion": "EL SALVADOR 4919",
    "segmentacion": "BAR",
    "horario": "MEDIO DIA / TARDE / NOCHE",
    "descripcion": "Primer irish bar en Palermo. Perfecto para ir a ver deportes",
    "lb": "QUILMES",
    "eventos_promociones": null,
    "direccionFormateada": "El Salvador 4919, C1414BPO Cdad. Autónoma de Buenos Aires, Argentina",
    "latitud": "-34.5878479",
    "longitud": "-58.4292737"
  },
  {
    "codigo": "518333",
    "nombre": "GREEN PARROT",
    "localidad": "PALERMO",
    "direccion": "GORRITI 4891",
    "segmentacion": "BAR",
    "horario": "TARDE / NOCHE",
    "descripcion": "Social Club",
    "lb": "CORONA",
    "eventos_promociones": null,
    "direccionFormateada": "Gorriti 4891, C1414BJM Cdad. Autónoma de Buenos Aires, Argentina",
    "latitud": "-34.5900582",
    "longitud": "-58.4300065"
  },
  {
    "codigo": "413743",
    "nombre": "THE HOLE",
    "localidad": "PALERMO",
    "direccion": "CASTILLO 1521",
    "segmentacion": "BAR",
    "horario": "NOCHE",
    "descripcion": "Bar oculto ambientado como la carcel de alcatraz",
    "lb": "",
    "eventos_promociones": null,
    "direccionFormateada": "Castillo 1521, C1427 Cdad. Autónoma de Buenos Aires, Argentina",
    "latitud": "-34.587254",
    "longitud": "-58.4424575"
  },
  {
    "codigo": "449604",
    "nombre": "LOCAL SUPPORT",
    "localidad": "PALERMO",
    "direccion": "GORRITI 5045",
    "segmentacion": "BAR",
    "horario": "TARDE / NOCHE",
    "descripcion": "Maestros de la pizza, café, galeria de arte y eventos",
    "lb": "BRAHMA",
    "eventos_promociones": null,
    "direccionFormateada": "BJQ, Gorriti 5045, C1414 Cdad. Autónoma de Buenos Aires, Argentina",
    "latitud": "-34.5889991",
    "longitud": "-58.43153239999999"
  },
  {
    "codigo": "449711",
    "nombre": "SORIA",
    "localidad": "PALERMO",
    "direccion": "GORRITI 5151",
    "segmentacion": "BAR",
    "horario": "NOCHE",
    "descripcion": "Tragos y platitos",
    "lb": "",
    "eventos_promociones": null,
    "direccionFormateada": "Gorriti 5151, C1414 Cdad. Autónoma de Buenos Aires, Argentina",
    "latitud": "-34.5882297",
    "longitud": "-58.4324483"
  },
  {
    "codigo": "423837",
    "nombre": "TO MA TE - ESTACION DE SABORES",
    "localidad": "PALERMO",
    "direccion": "EL SALVADOR 4676",
    "segmentacion": "RESTAURANTE",
    "horario": "MEDIO DIA / NOCHE",
    "descripcion": "Comida y cocteleria de estacion",
    "lb": "STELLA ARTOIS",
    "eventos_promociones": null,
    "direccionFormateada": "El Salvador 4676, C1414 Cdad. Autónoma de Buenos Aires, Argentina",
    "latitud": "-34.5896507",
    "longitud": "-58.4269674"
  },
  {
    "codigo": "446702",
    "nombre": "COCHINCHINA",
    "localidad": "PALERMO",
    "direccion": "ARMENIA 1540",
    "segmentacion": "BAR",
    "horario": "NOCHE",
    "descripcion": "Bar N*22 en el ranking de @50BestBars",
    "lb": "STELLA ARTOIS",
    "eventos_promociones": null,
    "direccionFormateada": "Armenia 1540, C1414 Cdad. Autónoma de Buenos Aires, Argentina",
    "latitud": "-34.590345",
    "longitud": "-58.42900359999999"
  },
  {
    "codigo": "445978",
    "nombre": "COWI",
    "localidad": "PALERMO",
    "direccion": "ARMENIA 1447",
    "segmentacion": "RESTAURANTE",
    "horario": "TARDE / NOCHE",
    "descripcion": "Bar de vinos",
    "lb": "",
    "eventos_promociones": null,
    "direccionFormateada": "Armenia 1447, C1414 Cdad. Autónoma de Buenos Aires, Argentina",
    "latitud": "-34.591332",
    "longitud": "-58.4296641"
  },
  {
    "codigo": "420079",
    "nombre": "LO DE JESUS",
    "localidad": "PALERMO",
    "direccion": "GURRUCHAGA 1418",
    "segmentacion": "RESTAURANTE",
    "horario": "MEDIO DIA / NOCHE",
    "descripcion": "Parrilla premium",
    "lb": "",
    "eventos_promociones": null,
    "direccionFormateada": "Gurruchaga 1406, C1414DID Cdad. Autónoma de Buenos Aires, Argentina",
    "latitud": "-34.5905139",
    "longitud": "-58.43123119999999"
  },
  {
    "codigo": "425536",
    "nombre": "EL PURGATORIO",
    "localidad": "PALERMO",
    "direccion": "EL SALVADOR 4677",
    "segmentacion": "BAR",
    "horario": "TARDE / NOCHE",
    "descripcion": "Bar oculto donde necesitaras una contraseña para ingresar",
    "lb": "",
    "eventos_promociones": null,
    "direccionFormateada": "El Salvador 4677, C1414BPI Cdad. Autónoma de Buenos Aires, Argentina",
    "latitud": "-34.5894353",
    "longitud": "-58.4267213"
  },
  {
    "codigo": "444383",
    "nombre": "MANTECA",
    "localidad": "PALERMO",
    "direccion": "URIARTE 1657",
    "segmentacion": "RESTAURANTE",
    "horario": "MEDIO DIA / NOCHE",
    "descripcion": "Transforman la cocina casera en alta gastronomía con platos de comfort food elaborados con técnicas refinadas e ingredientes frescos de nuestra tierra y mar",
    "lb": "",
    "eventos_promociones": null,
    "direccionFormateada": "Uriarte 1657, C1425 Cdad. Autónoma de Buenos Aires, Argentina",
    "latitud": "-34.5871483",
    "longitud": "-58.4314808"
  },
  {
    "codigo": "455346",
    "nombre": "ROXY",
    "localidad": "CHACARITA",
    "direccion": "AV. FEDERICO LACROZE 3455",
    "segmentacion": "ENTRETENIMIENTO",
    "horario": "NOCHE",
    "descripcion": "Food, drinks & Music experience",
    "lb": "QUILMES",
    "eventos_promociones": null,
    "direccionFormateada": "Av. Federico Lacroze 3455, C1426 Cdad. Autónoma de Buenos Aires, Argentina",
    "latitud": "-34.5801682",
    "longitud": "-58.4509113"
  },
  {
    "codigo": "471931",
    "nombre": "ROCK AND FELLER",
    "localidad": "VICENTE LOPEZ",
    "direccion": "PARANA 3745",
    "segmentacion": "RESTAURANTE",
    "horario": "MEDIO DIA / NOCHE",
    "descripcion": "Bar tematico americano que reune gastronomia y rock",
    "lb": "",
    "eventos_promociones": null,
    "direccionFormateada": "Paraná 3745, B1640FRC Olivos, Provincia de Buenos Aires, Argentina",
    "latitud": "-34.5086234",
    "longitud": "-58.52321010000001"
  },
  {
    "codigo": "471933",
    "nombre": "ROCK AND FELLERS",
    "localidad": "PILAR",
    "direccion": "LAS MAGNOLIAS 533",
    "segmentacion": "RESTAURANTE",
    "horario": "MEDIO DIA / NOCHE",
    "descripcion": "Bar tematico americano que reune gastronomia y rock",
    "lb": "",
    "eventos_promociones": null,
    "direccionFormateada": "Las Magnolias 533 km 50, B1629 Pilar Centro, Provincia de Buenos Aires, Argentina",
    "latitud": "-34.4452363",
    "longitud": "-58.8724048"
  },
  {
    "codigo": "491936",
    "nombre": "FANTASY SKATE",
    "localidad": "DEVOTO",
    "direccion": "JOSE PEDRO VARELA 4650",
    "segmentacion": "ENTRETENIMIENTO",
    "horario": "MAÑANA / MEDIO DIA / TARDE / NOCHE",
    "descripcion": "Centro de patinaje",
    "lb": "",
    "eventos_promociones": null,
    "direccionFormateada": "José Pedro Varela 4650, C1417EYV Cdad. Autónoma de Buenos Aires, Argentina",
    "latitud": "-34.6098276",
    "longitud": "-58.51501810000001"
  },
  {
    "codigo": "527462",
    "nombre": "Mailo",
    "localidad": "NORDELTA",
    "direccion": "AV. AGUSTIN M. GARCIA 8155",
    "segmentacion": "RESTAURANTE",
    "horario": "MEDIO DIA / NOCHE",
    "descripcion": "Propuesta gastronómica que combina la calidez del fuego, el toque rústico de un horno de barro, ambientación e iluminación tenue, con originales platos y cócteles",
    "lb": "STELLA ARTOIS",
    "eventos_promociones": null,
    "direccionFormateada": "Av. Agustín M. García 8155, B1617 Rincón de Milberg, Provincia de Buenos Aires, Argentina",
    "latitud": "-34.3979998",
    "longitud": "-58.6528088"
  },
  {
    "codigo": "462145",
    "nombre": "GARCIA",
    "localidad": "NORDELTA",
    "direccion": "AV. DE LOS LAGOS 205",
    "segmentacion": "RESTAURANTE",
    "horario": "MAÑANA / MEDIO DIA / TARDE / NOCHE",
    "descripcion": "Carta sabrosa en la que predominan las pastas caseras, pastelería de alta gama y café de especialidad, barra con tragos federales y cava con vinos seleccionados de todo el país",
    "lb": "STELLA ARTOIS",
    "eventos_promociones": null,
    "direccionFormateada": "Av. de los Lagos 205, Rincón de Milberg, Provincia de Buenos Aires, Argentina",
    "latitud": "-34.4411763",
    "longitud": "-58.6412588"
  },
  {
    "codigo": "419565",
    "nombre": "RODAJA",
    "localidad": "NORDELTA",
    "direccion": "AV. AGUSTIN M GARCIA 5345",
    "segmentacion": "RESTAURANTE",
    "horario": "NOCHE",
    "descripcion": "La cocina es casera, cuidada y sin pretensiones, pensado para que te guste como si fuera hecho en casa",
    "lb": "",
    "eventos_promociones": null,
    "direccionFormateada": "Av. Agustín M. García 5345, B1648 Gran Buenos Aires, Provincia de Buenos Aires, Argentina",
    "latitud": "-34.4039583",
    "longitud": "-58.62689709999999"
  },
  {
    "codigo": "406840",
    "nombre": "CASA LUCCA",
    "localidad": "DEVOTO",
    "direccion": "ASUNCION 4167",
    "segmentacion": "RESTAURANTE",
    "horario": "MAÑANA / MEDIO DIA / TARDE / NOCHE",
    "descripcion": "Cocina de inmigrantes",
    "lb": "",
    "eventos_promociones": null,
    "direccionFormateada": "C1419HGS, Asunción 4167, C1419HGS Cdad. Autónoma de Buenos Aires, Argentina",
    "latitud": "-34.6015992",
    "longitud": "-58.51253810000001"
  },
  {
    "codigo": "464114",
    "nombre": "KANDUI - THE SURF HOUSE",
    "localidad": "CHACARITA",
    "direccion": "AV. ALVAREZ THOMAS 1651",
    "segmentacion": "BAR",
    "horario": "MEDIO DIA / NOCHE",
    "descripcion": "La casa del surf, con bar y surfparck techado",
    "lb": "CORONA",
    "eventos_promociones": null,
    "direccionFormateada": "Av. Álvarez Thomas 1651, C1427 Cdad. Autónoma de Buenos Aires, Argentina",
    "latitud": "-34.5787274",
    "longitud": "-58.46544249999999"
  },
  {
    "codigo": "476059",
    "nombre": "SINCHI SUSHI",
    "localidad": "NORDELTA",
    "direccion": "AV. AGUSTIN M. GARCIA 8079",
    "segmentacion": "RESTAURANTE",
    "horario": "MEDIO DIA / NOCHE",
    "descripcion": "Sushi y cocina nikkei",
    "lb": "",
    "eventos_promociones": null,
    "direccionFormateada": "Av. Agustín M. García 6456, B1648 Rincón de Milberg, Provincia de Buenos Aires, Argentina",
    "latitud": "-34.4019266",
    "longitud": "-58.6360292"
  },
  {
    "codigo": "472863",
    "nombre": "Fico",
    "localidad": "VILLA CRESPO",
    "direccion": "MUNECAS 775",
    "segmentacion": "RESTAURANTE",
    "horario": "MEDIO DIA / NOCHE",
    "descripcion": "Recomendado por la guia michelin",
    "lb": "STELLA ARTOIS",
    "eventos_promociones": null,
    "direccionFormateada": "Muñecas 775, C1414 Cdad. Autónoma de Buenos Aires, Argentina",
    "latitud": "-34.600686",
    "longitud": "-58.4454035"
  },
  {
    "codigo": "491033",
    "nombre": "TIGRE MORADO",
    "localidad": "NORDELTA",
    "direccion": "JOSE PAIVA 100",
    "segmentacion": "RESTAURANTE",
    "horario": "MEDIO DIA / NOCHE",
    "descripcion": "Cebicheria",
    "lb": "",
    "eventos_promociones": null,
    "direccionFormateada": "Av. Sta. María de las Conchas 6019, B1624 Buenos Aires, Provincia de Buenos Aires, Argentina",
    "latitud": "-34.4026641",
    "longitud": "-58.6316508"
  },
  {
    "codigo": "424323",
    "nombre": "TEATRO FLORES",
    "localidad": "FLORESTA",
    "direccion": "AV RIVADAVIA 7800",
    "segmentacion": "ENTRETENIMIENTO",
    "horario": "NOCHE",
    "descripcion": "Sala de conciertos",
    "lb": "",
    "eventos_promociones": null,
    "direccionFormateada": "Av. Rivadavia 7806, C1407 Cdad. Autónoma de Buenos Aires, Argentina",
    "latitud": "-34.6323915",
    "longitud": "-58.4746437"
  },
  {
    "codigo": "131969",
    "nombre": "ACATRAZ",
    "localidad": "ALMAGRO",
    "direccion": "AV RIVADAVIA (52) 3638",
    "segmentacion": "ENTRETENIMIENTO",
    "horario": "TARDE / NOCHE",
    "descripcion": "Bar de juegos",
    "lb": "",
    "eventos_promociones": null,
    "direccionFormateada": "Av. Rivadavia 3636, C1204 Cdad. Autónoma de Buenos Aires, Argentina",
    "latitud": "-34.6113399",
    "longitud": "-58.4175542"
  },
  {
    "codigo": "159746",
    "nombre": "Konex",
    "localidad": "ALMAGRO",
    "direccion": "SARMIENTO. 3125",
    "segmentacion": "ENTRETENIMIENTO",
    "horario": "NOCHE",
    "descripcion": "Espacio de musica en vivo, teatro y mas",
    "lb": "BRAHMA",
    "eventos_promociones": null,
    "direccionFormateada": "Sarmiento 3125, C1196AAG Cdad. Autónoma de Buenos Aires, Argentina",
    "latitud": "-34.6065974",
    "longitud": "-58.4103897"
  },
  {
    "codigo": "514119",
    "nombre": "MALEDETTO",
    "localidad": "VILLA LURO",
    "direccion": "AV. RIVADAVIA 10299",
    "segmentacion": "RESTAURANTE",
    "horario": "MEDIO DIA / NOCHE",
    "descripcion": "Trattoria italiana clásica con platos abundantes y ambiente familiar. Famosa por su pasta servida en la horma de queso",
    "lb": "STELLA ARTOIS",
    "eventos_promociones": null,
    "direccionFormateada": "Av. Rivadavia 10299, C1408 C1408AAC, Cdad. Autónoma de Buenos Aires, Argentina",
    "latitud": "-34.6386979",
    "longitud": "-58.5086175"
  },
  {
    "codigo": "465548",
    "nombre": "JOBS BAR",
    "localidad": "BOEDO",
    "direccion": "AV. CARLOS CALVO 3860",
    "segmentacion": "ENTRETENIMIENTO",
    "horario": "NOCHE",
    "descripcion": "Bar de juegos",
    "lb": "BRAHMA",
    "eventos_promociones": null,
    "direccionFormateada": "Carlos Calvo 3860, C1230ABP C1230ABP, Cdad. Autónoma de Buenos Aires, Argentina",
    "latitud": "-34.624738",
    "longitud": "-58.4198104"
  },
  {
    "codigo": "408354",
    "nombre": "SANDOVAL",
    "localidad": "CABALLITO",
    "direccion": "JOSE BONIFACIO 1595",
    "segmentacion": "ENTRETENIMIENTO",
    "horario": "NOCHE",
    "descripcion": "Bar de juegos",
    "lb": "",
    "eventos_promociones": null,
    "direccionFormateada": "José Bonifacio 1595, C1406 Cdad. Autónoma de Buenos Aires, Argentina",
    "latitud": "-34.6289168",
    "longitud": "-58.44977299999999"
  },
  {
    "codigo": "472889",
    "nombre": "NEGRONI",
    "localidad": "CABALLITO",
    "direccion": "JOSE A. TERRY 306",
    "segmentacion": "RESTAURANTE",
    "horario": "MEDIO DIA / NOCHE",
    "descripcion": "Sushi Bar, restaurante, cocktails y burgers",
    "lb": "STELLA ARTOIS",
    "eventos_promociones": null,
    "direccionFormateada": "José A. Terry 306, C1406 Cdad. Autónoma de Buenos Aires, Argentina",
    "latitud": "-34.6256746",
    "longitud": "-58.44520900000001"
  },
  {
    "codigo": "542269",
    "nombre": "JOBS",
    "localidad": "PALERMO",
    "direccion": "EL SALVADOR 4139",
    "segmentacion": "ENTRETENIMIENTO",
    "horario": "NOCHE",
    "descripcion": "Bar de juegos",
    "lb": "BRAHMA",
    "eventos_promociones": null,
    "direccionFormateada": "El Salvador 4139, C1175 Cdad. Autónoma de Buenos Aires, Argentina",
    "latitud": "-34.5925577",
    "longitud": "-58.42159369999999"
  },
  {
    "codigo": "528905",
    "nombre": "CASA LUIS",
    "localidad": "CABALLITO",
    "direccion": "MENDEZ DE ANDES 1002",
    "segmentacion": "RESTAURANTE",
    "horario": "NOCHE",
    "descripcion": "Taperia Madrileña en Caballito",
    "lb": "",
    "eventos_promociones": null,
    "direccionFormateada": "Méndez de Andés 1002, C1405 Cdad. Autónoma de Buenos Aires, Argentina",
    "latitud": "-34.6160767",
    "longitud": "-58.44924510000001"
  },
  {
    "codigo": "481650",
    "nombre": "LA CASA BLANCA DE HABANA",
    "localidad": "DEVOTO",
    "direccion": "AV. NAZCA 4301",
    "segmentacion": "RESTAURANTE",
    "horario": "MAÑANA / MEDIO DIA / TARDE / NOCHE",
    "descripcion": "Pizzas de masa madre en horno a leña",
    "lb": "",
    "eventos_promociones": null,
    "direccionFormateada": "Nazca 4301, C1419 Cdad. Autónoma de Buenos Aires, Argentina",
    "latitud": "-34.5890823",
    "longitud": "-58.49951259999999"
  },
  {
    "codigo": "493995",
    "nombre": "VITTE WINE BAR",
    "localidad": "CABALLITO",
    "direccion": "JOSE A. TERRY 301",
    "segmentacion": "BAR",
    "horario": "MEDIO DIA / TARDE / NOCHE",
    "descripcion": "Una propuesta distinta con dispensadores de vino por copa",
    "lb": "",
    "eventos_promociones": null,
    "direccionFormateada": "José A. Terry 301, C1424 Cdad. Autónoma de Buenos Aires, Argentina",
    "latitud": "-34.6257023",
    "longitud": "-58.4453649"
  },
  {
    "codigo": "465107",
    "nombre": "DUMONT",
    "localidad": "RECOLETA",
    "direccion": "AYACUCHO 920",
    "segmentacion": "BAR",
    "horario": "NOCHE",
    "descripcion": "La Tincho Fierro",
    "lb": "",
    "eventos_promociones": null,
    "direccionFormateada": "Ayacucho 920, C1111AAD Cdad. Autónoma de Buenos Aires, Argentina",
    "latitud": "-34.5984054",
    "longitud": "-58.3960913"
  },
  {
    "codigo": "399418",
    "nombre": "AFRIKA",
    "localidad": "RECOLETA",
    "direccion": "AV. WARNES 1948",
    "segmentacion": "BOLICHE",
    "horario": "NOCHE",
    "descripcion": "Boliche",
    "lb": "BUDWEISER",
    "eventos_promociones": null,
    "direccionFormateada": "Av. Warnes 1948, C1416CQT Cdad. Autónoma de Buenos Aires, Argentina",
    "latitud": "-34.5966864",
    "longitud": "-58.46311119999999"
  },
  {
    "codigo": "309150",
    "nombre": "EL CUARTITO",
    "localidad": "RECOLETA",
    "direccion": "TALCAHUANO 937",
    "segmentacion": "RESTAURANTE",
    "horario": "MEDIO DIA / NOCHE",
    "descripcion": "Pizzeria porteña clasica desde 1934. Ambiente cargado de hitoria futbolera. Un icono de Buenos Aires",
    "lb": "QUILMES",
    "eventos_promociones": null,
    "direccionFormateada": "Talcahuano 937, C1001 Cdad. Autónoma de Buenos Aires, Argentina",
    "latitud": "-34.5978004",
    "longitud": "-58.3854176"
  },
  {
    "codigo": "444647",
    "nombre": "PIZZA CERO",
    "localidad": "PALERMO",
    "direccion": "TAGLE 2661",
    "segmentacion": "RESTAURANTE",
    "horario": "MAÑANA / MEDIO DIA / NOCHE",
    "descripcion": "Pizzería emblemática de Recoleta con 40 años de historia, fusiona tradición e innovación",
    "lb": "STELLA ARTOIS",
    "eventos_promociones": null,
    "direccionFormateada": "Av. del Libertador 1800, C1112 ABP, Cdad. Autónoma de Buenos Aires, Argentina",
    "latitud": "-34.5831099",
    "longitud": "-58.3993409"
  },
  {
    "codigo": "426662",
    "nombre": "INVERNADERO S.R.L.",
    "localidad": "RECOLETA",
    "direccion": "AV. WARNES 1948",
    "segmentacion": "RESTAURANTE",
    "horario": "MAÑANA / MEDIO DIA / NOCHE",
    "descripcion": "Conocido por su gran variedad de tagos con gin tirado",
    "lb": "STELLA ARTOIS",
    "eventos_promociones": null,
    "direccionFormateada": "Av. Warnes 1948, C1416CQT Cdad. Autónoma de Buenos Aires, Argentina",
    "latitud": "-34.5966864",
    "longitud": "-58.46311119999999"
  },
  {
    "codigo": "467100",
    "nombre": "LOCOS POR EL FUTBOL",
    "localidad": "RECOLETA",
    "direccion": "AV GRAL LAS HERAS 2101",
    "segmentacion": "BAR",
    "horario": "MEDIO DIA / NOCHE",
    "descripcion": "Bar tematico donde se vive la pasion por el deporte",
    "lb": "QUILMES",
    "eventos_promociones": null,
    "direccionFormateada": "Av. Gral. Las Heras 2101, C1127 AAD, Cdad. Autónoma de Buenos Aires, Argentina",
    "latitud": "-34.5891311",
    "longitud": "-58.39489159999999"
  },
  {
    "codigo": "472590",
    "nombre": "AMAYTA",
    "localidad": "RECOLETA",
    "direccion": "JUNCAL 1207",
    "segmentacion": "CAFE / CONFITERIA",
    "horario": "MAÑANA / MEDIO DIA / TARDE / NOCHE",
    "descripcion": "Confitería y pâtisserie de autor. Opciones sin TACC y veganas. Ideal para brunch o merienda relajada en la terraza",
    "lb": "",
    "eventos_promociones": null,
    "direccionFormateada": "Juncal 1207, C1001 Cdad. Autónoma de Buenos Aires, Argentina",
    "latitud": "-34.5926953",
    "longitud": "-58.38466330000001"
  },
  {
    "codigo": "454094",
    "nombre": "MARTI",
    "localidad": "RECOLETA",
    "direccion": "RODRIGUEZ PENA 1973",
    "segmentacion": "RESTAURANTE",
    "horario": "",
    "descripcion": "Recomendado por la guia michelin",
    "lb": "",
    "eventos_promociones": null,
    "direccionFormateada": "Rodríguez Peña 1973, C1021 Cdad. Autónoma de Buenos Aires, Argentina",
    "latitud": "-34.5884569",
    "longitud": "-58.38633220000001"
  },
  {
    "codigo": "467298",
    "nombre": "MOVISTAR ARENA",
    "localidad": "VILLA CRESPO",
    "direccion": "HUMBOLDT 450",
    "segmentacion": "ENTRETENIMIENTO",
    "horario": "NOCHE",
    "descripcion": "Viví la mejor experiencia de la música en vivo",
    "lb": "",
    "eventos_promociones": null,
    "direccionFormateada": "Humboldt 450, C1414CSJ Cdad. Autónoma de Buenos Aires, Argentina",
    "latitud": "-34.5945093",
    "longitud": "-58.44800119999999"
  },
  {
    "codigo": "472207",
    "nombre": "RONDA",
    "localidad": "SAAVEDRA",
    "direccion": "VEDIA 3600",
    "segmentacion": "ENTRETENIMIENTO",
    "horario": "MAÑANA / MEDIO DIA / TARDE / NOCHE",
    "descripcion": "Patio de comidas premium, donde podras encontrar actividades como bowling y mini golf",
    "lb": "ANDES ORIGEN",
    "eventos_promociones": null,
    "direccionFormateada": "Vedia 3600, C1430 Cdad. Autónoma de Buenos Aires, Argentina",
    "latitud": "-34.5449737",
    "longitud": "-58.487352"
  },
  {
    "codigo": "543880",
    "nombre": "LA MALA",
    "localidad": "PALERMO",
    "direccion": "AV. DEL LIBERTADOR ARCO 3 3883",
    "segmentacion": "BAR",
    "horario": "NOCHE",
    "descripcion": "Bar descontracturado, con coctelería, happy hour y DJs",
    "lb": "",
    "eventos_promociones": null,
    "direccionFormateada": "Arco 3 y 4, Av. del Libertador 3883, C1425 ABL, Cdad. Autónoma de Buenos Aires, Argentina",
    "latitud": "-34.5709011",
    "longitud": "-58.422129"
  },
  {
    "codigo": "422612",
    "nombre": "BELISARIO ROLDAN",
    "localidad": "PALERMO",
    "direccion": "AVDA PTE FIGUEROA ALCORTA 5228",
    "segmentacion": "RESTAURANTE",
    "horario": "MAÑANA / MEDIO DIA / NOCHE",
    "descripcion": "Combina la parrilla premium de argentina con platos innovadores",
    "lb": "",
    "eventos_promociones": null,
    "direccionFormateada": "Av. Pres. Figueroa Alcorta 5228, C1426CBP Cdad. Autónoma de Buenos Aires, Argentina",
    "latitud": "-34.5653328",
    "longitud": "-58.4201891"
  },
  {
    "codigo": "321160",
    "nombre": "Crobar",
    "localidad": "PALERMO",
    "direccion": "AVDA DEL LIBERTADOR (P INFANTA ARC17) 3883",
    "segmentacion": "BOLICHE",
    "horario": "NOCHE",
    "descripcion": "Boliche",
    "lb": "BUDWEISER",
    "eventos_promociones": null,
    "direccionFormateada": "Av. Coronel Marcelino E. Freyre, C1425 Cdad. Autónoma de Buenos Aires, Argentina",
    "latitud": "-34.5694172",
    "longitud": "-58.4205188"
  },
  {
    "codigo": "441072",
    "nombre": "COBRA",
    "localidad": "PALERMO",
    "direccion": "AV. DEL LIBERTADOR (ARCO 15) 3883",
    "segmentacion": "BAR",
    "horario": "TARDE / NOCHE",
    "descripcion": "Café, tragos, musica en vivo y mas!",
    "lb": "CORONA",
    "eventos_promociones": null,
    "direccionFormateada": "Avenida del Libertador, Av. Coronel Marcelino E. Freyre 3880, C1425 Cdad. Autónoma de Buenos Aires, Argentina",
    "latitud": "-34.5697932",
    "longitud": "-58.42087439999999"
  },
  {
    "codigo": "430088",
    "nombre": "MALDINI",
    "localidad": "SAAVEDRA",
    "direccion": "VEDIA 3600",
    "segmentacion": "BAR",
    "horario": "MEDIO DIA / TARDE / NOCHE",
    "descripcion": "Bar con ambiente playero, ideal para el verano",
    "lb": "CORONA",
    "eventos_promociones": null,
    "direccionFormateada": "Vedia 3600, C1430 Cdad. Autónoma de Buenos Aires, Argentina",
    "latitud": "-34.5449737",
    "longitud": "-58.487352"
  },
  {
    "codigo": "384295",
    "nombre": "PARU",
    "localidad": "PALERMO",
    "direccion": "CERVINO 3812",
    "segmentacion": "RESTAURANTE",
    "horario": "MEDIO DIA / NOCHE",
    "descripcion": "Cocina Nikkei. Carnes que coquetean entre la intensidad peruana con la elegancia japonesa",
    "lb": "",
    "eventos_promociones": null,
    "direccionFormateada": "Av. Cerviño 3812, C1425 Cdad. Autónoma de Buenos Aires, Argentina",
    "latitud": "-34.5791712",
    "longitud": "-58.4128054"
  },
  {
    "codigo": "469648",
    "nombre": "MERO",
    "localidad": "PALERMO",
    "direccion": "AV. WARNES 1948",
    "segmentacion": "RESTAURANTE",
    "horario": "NOCHE",
    "descripcion": "Cocina mediterranea ambientado al estilo griego",
    "lb": "",
    "eventos_promociones": null,
    "direccionFormateada": "Av. Warnes 1948, C1416CQT Cdad. Autónoma de Buenos Aires, Argentina",
    "latitud": "-34.5966864",
    "longitud": "-58.46311119999999"
  },
  {
    "codigo": "458375",
    "nombre": "ARIBAU",
    "localidad": "SAAVEDRA",
    "direccion": "VEDIA 3600",
    "segmentacion": "BAR",
    "horario": "MEDIO DIA / TARDE / NOCHE",
    "descripcion": "Indoor & rooftop bar, ideal para after office, combina musica y juegos",
    "lb": "STELLA ARTOIS",
    "eventos_promociones": null,
    "direccionFormateada": "Vedia 3600, C1430 Cdad. Autónoma de Buenos Aires, Argentina",
    "latitud": "-34.5468521",
    "longitud": "-58.4882583"
  },
  {
    "codigo": "459119",
    "nombre": "Campo Bravo",
    "localidad": "PALERMO",
    "direccion": "BAEZ 292",
    "segmentacion": "RESTAURANTE",
    "horario": "MEDIO DIA / NOCHE",
    "descripcion": "Expertos en Parrilla Argentina y Cocina Internacional. 100% sin TACC, opciones keto, veganas, sin lactosa, etc",
    "lb": "",
    "eventos_promociones": null,
    "direccionFormateada": "Báez 292, C1426 Cdad. Autónoma de Buenos Aires, Argentina",
    "latitud": "-34.5722344",
    "longitud": "-58.4311873"
  },
  {
    "codigo": "518336",
    "nombre": "MALDINI AVELLANEDA",
    "localidad": "AVELLANEDA",
    "direccion": "GRAL. GUEMES 897",
    "segmentacion": "RESTAURANTE",
    "horario": "MEDIO DIA / TARDE / NOCHE",
    "descripcion": "Bar con ambiente playero, ideal para el verano",
    "lb": "CORONA",
    "eventos_promociones": null,
    "direccionFormateada": "Gral. Güemes 857, B1873BOG Crucecita, Provincia de Buenos Aires, Argentina",
    "latitud": "-34.676316",
    "longitud": "-58.36774699999999"
  },
  {
    "codigo": "420272",
    "nombre": "MASSEY FAMILIA ALMACEN DE PAS",
    "localidad": "PALERMO",
    "direccion": "CERVIÑO 3883",
    "segmentacion": "RESTAURANTE",
    "horario": "MEDIO DIA / NOCHE",
    "descripcion": "ceviches, tiraditos, nigiris y makis, provienen de la tradición Nikkei, pero tienen una presentación moderna,",
    "lb": "STELLA ARTOIS",
    "eventos_promociones": null,
    "direccionFormateada": "Av. Cerviño 3883, C1425 Cdad. Autónoma de Buenos Aires, Argentina",
    "latitud": "-34.5787371",
    "longitud": "-58.4129641"
  },
  {
    "codigo": "461883",
    "nombre": "CASA CAVIA",
    "localidad": "PALERMO",
    "direccion": "JUAN FRANCISCO SEGUI 3545",
    "segmentacion": "RESTAURANTE",
    "horario": "MEDIO DIA / NOCHE",
    "descripcion": "Recomendado por la guia michelin",
    "lb": "",
    "eventos_promociones": null,
    "direccionFormateada": "Cavia 2985, C1425DDA Cdad. Autónoma de Buenos Aires, Argentina",
    "latitud": "-34.5775042",
    "longitud": "-58.4071522"
  },
  {
    "codigo": "189856",
    "nombre": "Groove",
    "localidad": "PALERMO",
    "direccion": "AV SANTA FE 4389",
    "segmentacion": "BOLICHE",
    "horario": "NOCHE",
    "descripcion": "Boliche",
    "lb": "",
    "eventos_promociones": null,
    "direccionFormateada": "Av. Sta. Fe 4389, C1425 Cdad. Autónoma de Buenos Aires, Argentina",
    "latitud": "-34.5796591",
    "longitud": "-58.423177"
  },
  {
    "codigo": "431118",
    "nombre": "NOVECENTO",
    "localidad": "PALERMO",
    "direccion": "BÁEZ 199",
    "segmentacion": "RESTAURANTE",
    "horario": "MEDIO DIA / TARDE / NOCHE",
    "descripcion": "Es la mejor opción para aquellos que estén buscando un lugar casual y elegante con un estilo de Bistró Europeo",
    "lb": "",
    "eventos_promociones": null,
    "direccionFormateada": "Báez 199, C1426 Cdad. Autónoma de Buenos Aires, Argentina",
    "latitud": "-34.5726198",
    "longitud": "-58.4299932"
  },
  {
    "codigo": "448399",
    "nombre": "ELECTRIC CAFE",
    "localidad": "PALERMO",
    "direccion": "AV. DEL LIBERTADOR ARCO 9 3883",
    "segmentacion": "RESTAURANTE",
    "horario": "MAÑANA / MEDIO DIA / TARDE / NOCHE",
    "descripcion": "El listening bar de Avant Garden",
    "lb": "",
    "eventos_promociones": null,
    "direccionFormateada": "Av. Infanta Isabel 220, C1425 Cdad. Autónoma de Buenos Aires, Argentina",
    "latitud": "-34.5704155",
    "longitud": "-58.42150840000001"
  },
  {
    "codigo": "503872",
    "nombre": "CORONADO MALBA",
    "localidad": "PALERMO",
    "direccion": "MARTIN CORONADO 3300",
    "segmentacion": "RESTAURANTE",
    "horario": "MAÑANA / MEDIO DIA / TARDE / NOCHE",
    "descripcion": "Restaurante dentro del museo MALBA",
    "lb": "",
    "eventos_promociones": null,
    "direccionFormateada": "Martín Coronado 3300, C1425CSD Cdad. Autónoma de Buenos Aires, Argentina",
    "latitud": "-34.5768058",
    "longitud": "-58.4028624"
  },
  {
    "codigo": "451195",
    "nombre": "7167 BURGERBEER",
    "localidad": "PALERMO",
    "direccion": "CABELLO 3609",
    "segmentacion": "RESTAURANTE",
    "horario": "MEDIO DIA / NOCHE",
    "descripcion": "Burger & Beer",
    "lb": "",
    "eventos_promociones": null,
    "direccionFormateada": "Av. Raúl Scalabrini Ortiz 3110, C1425 Cdad. Autónoma de Buenos Aires, Argentina",
    "latitud": "-34.5806435",
    "longitud": "-58.41045"
  },
  {
    "codigo": "525345",
    "nombre": "CHECKPOINT CHARLIE",
    "localidad": "PALERMO",
    "direccion": "AV DORREGO 3590",
    "segmentacion": "RESTAURANTE",
    "horario": "MAÑANA / MEDIO DIA / TARDE / NOCHE",
    "descripcion": "Grill europeo en Buenos Aires",
    "lb": "STELLA ARTOIS",
    "eventos_promociones": null,
    "direccionFormateada": "Av. Dorrego 3590, C1425GAZ Cdad. Autónoma de Buenos Aires, Argentina",
    "latitud": "-34.5688694",
    "longitud": "-58.421788"
  },
  {
    "codigo": "460101",
    "nombre": "LA STAMPA",
    "localidad": "PALERMO",
    "direccion": "JERONIMO SALGUERO 2741",
    "segmentacion": "RESTAURANTE",
    "horario": "MEDIO DIA / NOCHE",
    "descripcion": "Pioneros de la pasta al dente en Argentina",
    "lb": "",
    "eventos_promociones": null,
    "direccionFormateada": "Jerónimo Salguero 2741, C1425DEI Cdad. Autónoma de Buenos Aires, Argentina",
    "latitud": "-34.579743",
    "longitud": "-58.40753239999999"
  },
  {
    "codigo": "164136",
    "nombre": "MUSEO EVITA",
    "localidad": "PALERMO",
    "direccion": "JUAN MARIA GUTIERREZ 3926",
    "segmentacion": "RESTAURANTE",
    "horario": "MEDIO DIA / NOCHE",
    "descripcion": "Restaurante dentro del museo Evita con jardin",
    "lb": "",
    "eventos_promociones": null,
    "direccionFormateada": "C1425ARF, Juan María Gutiérrez 3926, C1425ARF Cdad. Autónoma de Buenos Aires, Argentina",
    "latitud": "-34.58069",
    "longitud": "-58.4149293"
  },
  {
    "codigo": "428921",
    "nombre": "MALDINI",
    "localidad": "",
    "direccion": "VELEZ SARSFIELD 1000",
    "segmentacion": "BAR",
    "horario": "MEDIO DIA / TARDE / NOCHE",
    "descripcion": "Bar con ambiente playero, ideal para el verano",
    "lb": "CORONA",
    "eventos_promociones": null,
    "direccionFormateada": "CMA, Vélez Sársfield 1000, B1869 Gerli, Provincia de Buenos Aires, Argentina",
    "latitud": "-34.6769502",
    "longitud": "-58.3705445"
  },
  {
    "codigo": "465135",
    "nombre": "AMERIK",
    "localidad": "ALMAGRO",
    "direccion": "GASCON 1040",
    "segmentacion": "BOLICHE",
    "horario": "NOCHE",
    "descripcion": "Boliche",
    "lb": "",
    "eventos_promociones": null,
    "direccionFormateada": "Gascón 1040, C1414 Cdad. Autónoma de Buenos Aires, Argentina",
    "latitud": "-34.5986491",
    "longitud": "-58.423831"
  },
  {
    "codigo": "457014",
    "nombre": "CLUB ARAOZ",
    "localidad": "PALERMO",
    "direccion": "ARAOZ 2424",
    "segmentacion": "BOLICHE",
    "horario": "NOCHE",
    "descripcion": "Boliche",
    "lb": "",
    "eventos_promociones": null,
    "direccionFormateada": "Araoz Pedro M 2424, C1425DGL Cdad. Autónoma de Buenos Aires, Argentina",
    "latitud": "-34.5862738",
    "longitud": "-58.4163969"
  },
  {
    "codigo": "526059",
    "nombre": "URIBURU",
    "localidad": "RECOLETA",
    "direccion": "AV. WARNES 1948",
    "segmentacion": "-",
    "horario": "",
    "descripcion": "-",
    "lb": "",
    "eventos_promociones": null,
    "direccionFormateada": "Av. Warnes 1948, C1416CQT Cdad. Autónoma de Buenos Aires, Argentina",
    "latitud": "-34.5966864",
    "longitud": "-58.46311119999999"
  },
  {
    "codigo": "173589",
    "nombre": "GRUPO PASEO DE LA PLAZA",
    "localidad": "MICROCENTRO",
    "direccion": "AV CORRIENTES (-LOCAL 12-) 1660",
    "segmentacion": "RESTAURANTE",
    "horario": "MAÑANA / MEDIO DIA / TARDE / NOCHE",
    "descripcion": "paseo la plaza",
    "lb": "ANDES ORIGEN",
    "eventos_promociones": null,
    "direccionFormateada": "Av. Corrientes 1660 C1042AAP, C1042 AAP, Cdad. Autónoma de Buenos Aires, Argentina",
    "latitud": "-34.6044559",
    "longitud": "-58.3902082"
  },
  {
    "codigo": "440706",
    "nombre": "NIXXON",
    "localidad": "MICROCENTRO",
    "direccion": "AV. CORRIENTES 1660",
    "segmentacion": "RESTAURANTE",
    "horario": "TARDE / NOCHE",
    "descripcion": "paseo la plaza",
    "lb": "ANDES ORIGEN",
    "eventos_promociones": null,
    "direccionFormateada": "Sarmiento 1617, Av. Corrientes 1660, 1042 Cdad. Autónoma de Buenos Aires, Argentina",
    "latitud": "-34.605286",
    "longitud": "-58.38959879999999"
  },
  {
    "codigo": "460476",
    "nombre": "BATACAZO Y OY VEY",
    "localidad": "MICROCENTRO",
    "direccion": "AV. CORRIENTES 1660",
    "segmentacion": "RESTAURANTE",
    "horario": "MEDIO DIA / NOCHE",
    "descripcion": "paseo la plaza",
    "lb": "ANDES ORIGEN",
    "eventos_promociones": null,
    "direccionFormateada": "Av. Corrientes 1660 Local 9, C1042 Cdad. Autónoma de Buenos Aires, Argentina",
    "latitud": "-34.6043901",
    "longitud": "-58.3901897"
  },
  {
    "codigo": "169914",
    "nombre": "GRUPO PASEO DE LA PLAZA",
    "localidad": "MICROCENTRO",
    "direccion": "AV CORRIENTES 1660",
    "segmentacion": "RESTAURANTE",
    "horario": "MEDIO DIA / NOCHE",
    "descripcion": "paseo la plaza",
    "lb": "ANDES ORIGEN",
    "eventos_promociones": null,
    "direccionFormateada": "Av. Corrientes 1660 C1042AAP, C1042 AAP, Cdad. Autónoma de Buenos Aires, Argentina",
    "latitud": "-34.6044559",
    "longitud": "-58.3902082"
  },
  {
    "codigo": "328789",
    "nombre": "EL PICADERO",
    "localidad": "MICROCENTRO",
    "direccion": "ENRIQUE SANTOS DISCEPOLO 1857",
    "segmentacion": "ENTRETENIMIENTO",
    "horario": "TARDE / NOCHE",
    "descripcion": "Teatro",
    "lb": "",
    "eventos_promociones": null,
    "direccionFormateada": "Enrique Santos Discépolo 1857, C1051 Cdad. Autónoma de Buenos Aires, Argentina",
    "latitud": "-34.6037757",
    "longitud": "-58.3933812"
  },
  {
    "codigo": "461563",
    "nombre": "OY VEY",
    "localidad": "MICROCENTRO",
    "direccion": "AV. CORRIENTES 1660",
    "segmentacion": "RESTAURANTE",
    "horario": "MEDIO DIA / NOCHE",
    "descripcion": "paseo la plaza",
    "lb": "ANDES ORIGEN",
    "eventos_promociones": null,
    "direccionFormateada": "Av. Corrientes 1660 Local 9, C1042 Cdad. Autónoma de Buenos Aires, Argentina",
    "latitud": "-34.6043901",
    "longitud": "-58.3901897"
  },
  {
    "codigo": "458420",
    "nombre": "OLYMPO SKY",
    "localidad": "MICROCENTRO",
    "direccion": "AV CORRIENTES 1442",
    "segmentacion": "BAR",
    "horario": "MEDIO DIA / TARDE / NOCHE",
    "descripcion": "Cocteles de autor en el piso 31 con vistas 360",
    "lb": "",
    "eventos_promociones": null,
    "direccionFormateada": "Av. Corrientes 1464, C1042 Cdad. Autónoma de Buenos Aires, Argentina",
    "latitud": "-34.6042316",
    "longitud": "-58.3874611"
  },
  {
    "codigo": "469509",
    "nombre": "JOHN BURGER",
    "localidad": "PALERMO",
    "direccion": "MARIO BRAVO 1055",
    "segmentacion": "RESTAURANTE",
    "horario": "MEDIO DIA / NOCHE",
    "descripcion": "Las famosas hamburguesas de @JohnJohnBurger",
    "lb": "",
    "eventos_promociones": null,
    "direccionFormateada": "Mario Bravo 1055, C1188 Cdad. Autónoma de Buenos Aires, Argentina",
    "latitud": "-34.5970938",
    "longitud": "-58.4156005"
  },
  {
    "codigo": "526063",
    "nombre": "SALA CASALS",
    "localidad": "MICROCENTRO",
    "direccion": "AV. CORRIENTES 1660",
    "segmentacion": "RESTAURANTE",
    "horario": "MEDIO DIA / NOCHE",
    "descripcion": "paseo la plaza",
    "lb": "ANDES ORIGEN",
    "eventos_promociones": null,
    "direccionFormateada": "Av. Corrientes 1660, C1042 AAP, Cdad. Autónoma de Buenos Aires, Argentina",
    "latitud": "-34.6044559",
    "longitud": "-58.3902082"
  },
  {
    "codigo": "170335",
    "nombre": "PASEO DE LA PLA",
    "localidad": "MICROCENTRO",
    "direccion": "AV CORRIENTES (-LOCAL 26-) 1660",
    "segmentacion": "RESTAURANTE",
    "horario": "MEDIO DIA / NOCHE",
    "descripcion": "paseo la plaza",
    "lb": "ANDES ORIGEN",
    "eventos_promociones": null,
    "direccionFormateada": "Buenos Aires, Argentina",
    "latitud": "-34.6036739",
    "longitud": "-58.3821215"
  },
  {
    "codigo": "446228",
    "nombre": "VUELTA ABAJO SO",
    "localidad": "MICROCENTRO",
    "direccion": "AVENIDA CORRIENTES 222",
    "segmentacion": "BAR",
    "horario": "MAÑANA / MEDIO DIA / TARDE / NOCHE",
    "descripcion": "Social Club. Cava de puros más grande de Latinoamérica",
    "lb": "",
    "eventos_promociones": null,
    "direccionFormateada": "Av. Corrientes 222 piso 15, C1043 Cdad. Autónoma de Buenos Aires, Argentina",
    "latitud": "-34.6031401",
    "longitud": "-58.3706367"
  },
  {
    "codigo": "460486",
    "nombre": "LOS PLATITOS",
    "localidad": "MICROCENTRO",
    "direccion": "AV. CORRIENTES 1660",
    "segmentacion": "RESTAURANTE",
    "horario": "MEDIO DIA / NOCHE",
    "descripcion": "paseo la plaza",
    "lb": "ANDES ORIGEN",
    "eventos_promociones": null,
    "direccionFormateada": "Av. Corrientes 1660, C1042 Cdad. Autónoma de Buenos Aires, Argentina",
    "latitud": "-34.6044559",
    "longitud": "-58.3902082"
  },
  {
    "codigo": "430572",
    "nombre": "Florida Rooftop",
    "localidad": "MICROCENTRO",
    "direccion": "FLORIDA 6TO. 165",
    "segmentacion": "BAR",
    "horario": "TARDE / NOCHE",
    "descripcion": "Bar con vista panoramica a las cupulas mas iconicas del microcentro.",
    "lb": "",
    "eventos_promociones": null,
    "direccionFormateada": "Florida 165, B1602 Cdad. Autónoma de Buenos Aires, Argentina",
    "latitud": "-34.6061973",
    "longitud": "-58.3750076"
  },
  {
    "codigo": "460474",
    "nombre": "KOKO",
    "localidad": "MICROCENTRO",
    "direccion": "AV. CORRIENTES 1660",
    "segmentacion": "RESTAURANTE",
    "horario": "MEDIO DIA / NOCHE",
    "descripcion": "paseo la plaza",
    "lb": "ANDES ORIGEN",
    "eventos_promociones": null,
    "direccionFormateada": "Av. Corrientes 1660, C1042 AAP, Cdad. Autónoma de Buenos Aires, Argentina",
    "latitud": "-34.604473",
    "longitud": "-58.39022309999999"
  },
  {
    "codigo": "461092",
    "nombre": "QUINTA ATENCIO",
    "localidad": "MICROCENTRO",
    "direccion": "AV. CORRIENTES 1660",
    "segmentacion": "RESTAURANTE",
    "horario": "MEDIO DIA / NOCHE",
    "descripcion": "paseo la plaza",
    "lb": "ANDES ORIGEN",
    "eventos_promociones": null,
    "direccionFormateada": "Av. Corrientes 1660, C1042 AAP, Cdad. Autónoma de Buenos Aires, Argentina",
    "latitud": "-34.6044559",
    "longitud": "-58.3902082"
  },
  {
    "codigo": "460477",
    "nombre": "SIFON SODERIA S",
    "localidad": "MICROCENTRO",
    "direccion": "AV. CORRIENTES 1660",
    "segmentacion": "RESTAURANTE",
    "horario": "MEDIO DIA / NOCHE",
    "descripcion": "paseo la plaza",
    "lb": "ANDES ORIGEN",
    "eventos_promociones": null,
    "direccionFormateada": "Av. Corrientes 1660, C1042 AAP, Cdad. Autónoma de Buenos Aires, Argentina",
    "latitud": "-34.6044559",
    "longitud": "-58.3902082"
  },
  {
    "codigo": "310875",
    "nombre": "El gato negro",
    "localidad": "MICROCENTRO",
    "direccion": "AVDA CORRIENTES 1669",
    "segmentacion": "CAFE / CONFITERIA",
    "horario": "MAÑANA / MEDIO DIA / TARDE / NOCHE",
    "descripcion": "Café notable de CABA",
    "lb": "",
    "eventos_promociones": null,
    "direccionFormateada": "Av. Corrientes 1669, C1042AAC Cdad. Autónoma de Buenos Aires, Argentina",
    "latitud": "-34.6041385",
    "longitud": "-58.390321"
  },
  {
    "codigo": "460489",
    "nombre": "LET IT V",
    "localidad": "MICROCENTRO",
    "direccion": "AV. CORRIENTES 1660",
    "segmentacion": "RESTAURANTE",
    "horario": "MEDIO DIA / NOCHE",
    "descripcion": "paseo la plaza",
    "lb": "ANDES ORIGEN",
    "eventos_promociones": null,
    "direccionFormateada": "Av. Corrientes 1660, C1042 Cdad. Autónoma de Buenos Aires, Argentina",
    "latitud": "-34.6047178",
    "longitud": "-58.3901741"
  },
  {
    "codigo": "539660",
    "nombre": "JARENTE",
    "localidad": "MICROCENTRO",
    "direccion": "AV. CORRIENTES 1660",
    "segmentacion": "RESTAURANTE",
    "horario": "MEDIO DIA / NOCHE",
    "descripcion": "paseo la plaza",
    "lb": "ANDES ORIGEN",
    "eventos_promociones": null,
    "direccionFormateada": "Av. Corrientes 1660, C1042 Cdad. Autónoma de Buenos Aires, Argentina",
    "latitud": "-34.6043901",
    "longitud": "-58.3901897"
  },
  {
    "codigo": "474365",
    "nombre": "AGUARA GUAZU",
    "localidad": "COSTANERA",
    "direccion": "",
    "segmentacion": "-",
    "horario": "",
    "descripcion": "-",
    "lb": "CORONA",
    "eventos_promociones": null,
    "direccionFormateada": "Av. Costanera Rafael Obligado, Cdad. Autónoma de Buenos Aires, Argentina",
    "latitud": "-34.5604123",
    "longitud": "-58.4075771"
  },
  {
    "codigo": "441853",
    "nombre": "RIBS AL RIO",
    "localidad": "COSTANERA",
    "direccion": "AV. COSTANERA RAFAEL OBLIGADO 7010",
    "segmentacion": "RESTAURANTE",
    "horario": "MEDIO DIA / NOCHE",
    "descripcion": "Ribs ahumadas artesanalmente",
    "lb": "BUDWEISER",
    "eventos_promociones": null,
    "direccionFormateada": "Av. Costanera Rafael Obligado 7010, C1428 Cdad. Autónoma de Buenos Aires, Argentina",
    "latitud": "-34.5444068",
    "longitud": "-58.4323618"
  },
  {
    "codigo": "448584",
    "nombre": "GARIBALDI",
    "localidad": "COSTANERA",
    "direccion": "AV. COSTANERA RAFAEL OBLIGADO 4899",
    "segmentacion": "RESTAURANTE",
    "horario": "MEDIO DIA / NOCHE",
    "descripcion": "Restaurante sobre el rio",
    "lb": "PATAGONIA",
    "eventos_promociones": null,
    "direccionFormateada": "Av. Costanera Rafael Obligado 4899, C1428 Cdad. Autónoma de Buenos Aires, Argentina",
    "latitud": "-34.551866",
    "longitud": "-58.42659949999999"
  },